Unnamed: 0	Country	EPRTRSectorCode	eprtrSectorName	EPRTRAnnexIMainActivityCode	EPRTRAnnexIMainActivityLabel	FacilityInspireID	facilityName	Longitude	Latitude	City	Pollutant	Emissions	Year	Air	Water
108988	Hungary	7	Intensive livestock production and aquaculture	7(a)(i)	Installations for the intensive rearing of poultry with 40,000 places for poultry	HU.EEA/101103.FACILITY	Bács-Tak Kft.	19.127062	46.265387	Rém	Ammonia (NH3)	23900.0	2007	1	0
108989	Hungary	3	Mineral industry	3(c)(i)	Installations for the production of cement clinker in rotary kilns	HU.EEA/138.FACILITY	Holcim Hungária Zrt.	18.5063592	47.7510882	Lábatlan	Arsenic and compounds (as As)	66.0	2007	1	0
108990	Hungary	3	Mineral industry	3(c)(i)	Installations for the production of cement clinker in rotary kilns	HU.EEA/138.FACILITY	Holcim Hungária Zrt.	18.5063592	47.7510882	Lábatlan	Cadmium and compounds (as Cd)	30.0	2007	1	0
108991	Hungary	3	Mineral industry	3(c)(i)	Installations for the production of cement clinker in rotary kilns	HU.EEA/138.FACILITY	Holcim Hungária Zrt.	18.5063592	47.7510882	Lábatlan	Carbon dioxide (CO2)	336000000.0	2007	1	0
108992	Hungary	3	Mineral industry	3(c)(i)	Installations for the production of cement clinker in rotary kilns	HU.EEA/138.FACILITY	Holcim Hungária Zrt.	18.5063592	47.7510882	Lábatlan	Carbon monoxide (CO)	613000.0	2007	1	0
108993	Hungary	3	Mineral industry	3(c)(i)	Installations for the production of cement clinker in rotary kilns	HU.EEA/138.FACILITY	Holcim Hungária Zrt.	18.5063592	47.7510882	Lábatlan	Chromium and compounds (as Cr)	148.0	2007	1	0
108994	Hungary	3	Mineral industry	3(c)(i)	Installations for the production of cement clinker in rotary kilns	HU.EEA/138.FACILITY	Holcim Hungária Zrt.	18.5063592	47.7510882	Lábatlan	Copper and compounds (as Cu)	178.0	2007	1	0
108995	Hungary	3	Mineral industry	3(c)(i)	Installations for the production of cement clinker in rotary kilns	HU.EEA/138.FACILITY	Holcim Hungária Zrt.	18.5063592	47.7510882	Lábatlan	Mercury and compounds (as Hg)	10.0	2007	1	0
108996	Hungary	3	Mineral industry	3(c)(i)	Installations for the production of cement clinker in rotary kilns	HU.EEA/138.FACILITY	Holcim Hungária Zrt.	18.5063592	47.7510882	Lábatlan	Nickel and compounds (as Ni)	86.0	2007	1	0
108997	Hungary	3	Mineral industry	3(c)(i)	Installations for the production of cement clinker in rotary kilns	HU.EEA/138.FACILITY	Holcim Hungária Zrt.	18.5063592	47.7510882	Lábatlan	Nitrogen oxides (NOX)	1570000.0	2007	1	0
108998	Hungary	3	Mineral industry	3(c)(i)	Installations for the production of cement clinker in rotary kilns	HU.EEA/138.FACILITY	Holcim Hungária Zrt.	18.5063592	47.7510882	Lábatlan	Sulphur oxides (SOX)	467000.0	2007	1	0
108999	Hungary	1	Energy sector	1(c)	Thermal power stations and other combustion installations	HU.EEA/140.FACILITY	Vértesi Erőmű Zrt.	18.271041	47.501688	Oroszlány	Carbon dioxide (CO2)	1840000000.0	2007	1	0
109000	Hungary	1	Energy sector	1(c)	Thermal power stations and other combustion installations	HU.EEA/140.FACILITY	Vértesi Erőmű Zrt.	18.271041	47.501688	Oroszlány	Carbon monoxide (CO)	833000.0	2007	1	0
109001	Hungary	1	Energy sector	1(c)	Thermal power stations and other combustion installations	HU.EEA/140.FACILITY	Vértesi Erőmű Zrt.	18.271041	47.501688	Oroszlány	Nitrogen oxides (NOX)	1730000.0	2007	1	0
109002	Hungary	1	Energy sector	1(c)	Thermal power stations and other combustion installations	HU.EEA/140.FACILITY	Vértesi Erőmű Zrt.	18.271041	47.501688	Oroszlány	Sulphur oxides (SOX)	5290000.0	2007	1	0
109003	Hungary	7	Intensive livestock production and aquaculture	7(a)(i)	Installations for the intensive rearing of poultry with 40,000 places for poultry	HU.EEA/158811.FACILITY	Bábolna Tetra Kft.	16.939929	47.374138	Vasegerszeg	Ammonia (NH3)	18000.0	2007	1	0
109004	Hungary	7	Intensive livestock production and aquaculture	7(a)(iii)	Installations for the intensive rearing of pigs with 750 places for sows	HU.EEA/158813.FACILITY	Nyugat Nyíregyházi Szövetkezet	21.660123	47.923425	Nyíregyháza	Ammonia (NH3)	54500.0	2007	1	0
109005	Hungary	2	Production and processing of metals	2(d)	Ferrous metal foundries with a production capacity of 20 tonnes per day	HU.EEA/170.FACILITY	Wescast Hungary Zrt.	18.301627	47.473321	Oroszlány	Benzene	1070.0	2007	1	0
109006	Hungary	7	Intensive livestock production and aquaculture	7(a)(ii)	Installations for the intensive rearing of pigs with 2,000 places for production pigs (over 30 kg)	HU.EEA/191341.FACILITY	Branau 2002 Kft.	18.748936	46.251315	Sárpilis	Ammonia (NH3)	14000.0	2007	1	0
109007	Hungary	3	Mineral industry	3(g)	Installations for the manufacture of ceramic products by firing, in particular roofing tiles, bricks, refractory bricks, tiles, stoneware or porcelain	HU.EEA/242.FACILITY	Wienerberger Téglaipari Zrt.	17.303471	46.676086	Balatonszentgyörgy	Benzene	1030.0	2007	1	0
109008	Hungary	3	Mineral industry	3(g)	Installations for the manufacture of ceramic products by firing, in particular roofing tiles, bricks, refractory bricks, tiles, stoneware or porcelain	HU.EEA/242.FACILITY	Wienerberger Téglaipari Zrt.	17.303471	46.676086	Balatonszentgyörgy	Chlorine and inorganic compounds (as HCl)	11400.0	2007	1	0
109009	Hungary	7	Intensive livestock production and aquaculture	7(a)(i)	Installations for the intensive rearing of poultry with 40,000 places for poultry	HU.EEA/253881.FACILITY	Bóly Mezőgazdasági Termelő és Kereskedelmi Zrt.	18.726759	46.059463	Bár	Ammonia (NH3)	18500.0	2007	1	0
109010	Hungary	7	Intensive livestock production and aquaculture	7(a)(ii)	Installations for the intensive rearing of pigs with 2,000 places for production pigs (over 30 kg)	HU.EEA/253891.FACILITY	Green 2000 Kft.	19.053874	46.32601	Nemesnádudvar	Ammonia (NH3)	11100.0	2007	1	0
109011	Hungary	2	Production and processing of metals	2(e)(ii)	Installation for the smelting, including the alloying, of non-ferrous metals, including recovered products (refining, foundry casting, etc.)	HU.EEA/283.FACILITY	MAL Zrt.	17.549189	47.091124	Ajka	Mercury and compounds (as Hg)	26.0	2007	1	0
109012	Hungary	2	Production and processing of metals	2(e)(ii)	Installation for the smelting, including the alloying, of non-ferrous metals, including recovered products (refining, foundry casting, etc.)	HU.EEA/283.FACILITY	MAL Zrt.	17.549189	47.091124	Ajka	Nitrogen oxides (NOX)	394000.0	2007	1	0
109013	Hungary	2	Production and processing of metals	2(e)(ii)	Installation for the smelting, including the alloying, of non-ferrous metals, including recovered products (refining, foundry casting, etc.)	HU.EEA/283.FACILITY	MAL Zrt.	17.549189	47.091124	Ajka	PCDD + PCDF (dioxins + furans) (as Teq)	0.000597	2007	1	0
109014	Hungary	4	Chemical industry	4(c)	Chemical installations for the production on an industrial scale of phosphorous, nitrogen or potassium based fertilisers (simple or compound fertilisers)	HU.EEA/343.FACILITY	Nitrogénművek Zrt.	18.130538	47.168134	Pétfürdő	Ammonia (NH3)	18800.0	2007	1	0
109015	Hungary	4	Chemical industry	4(a)(viii)	Chemical installations for the production on an industrial scale of basic organic chemicals: Basic plastic materials (polymers, synthetic fibres and cellulose-based fibres)	HU.EEA/39819.FACILITY	Graboplast Zrt.	17.654864	47.680685	Győr	Di-(2-ethyl hexyl) phthalate (DEHP)	9750.0	2007	1	0
109016	Hungary	3	Mineral industry	3(g)	Installations for the manufacture of ceramic products by firing, in particular roofing tiles, bricks, refractory bricks, tiles, stoneware or porcelain	HU.EEA/39827.FACILITY	Wienerberger Téglaipari Zrt.	18.988772	47.585534	Budapest_III.	Benzene	1390.0	2007	1	0
109017	Hungary	3	Mineral industry	3(e)	Installations for the manufacture of glass, including glass fibre	HU.EEA/39829.FACILITY	GE Hungary Zrt.	19.142184	47.778202	Vác	Mercury and compounds (as Hg)	21.0	2007	1	0
109018	Hungary	3	Mineral industry	3(g)	Installations for the manufacture of ceramic products by firing, in particular roofing tiles, bricks, refractory bricks, tiles, stoneware or porcelain	HU.EEA/39830.FACILITY	Wienerberger Téglaipari Zrt.	19.25561	47.691926	Őrbottyán	Benzene	1120.0	2007	1	0
109019	Hungary	3	Mineral industry	3(g)	Installations for the manufacture of ceramic products by firing, in particular roofing tiles, bricks, refractory bricks, tiles, stoneware or porcelain	HU.EEA/39830.FACILITY	Wienerberger Téglaipari Zrt.	19.25561	47.691926	Őrbottyán	Carbon monoxide (CO)	509000.0	2007	1	0
109020	Hungary	3	Mineral industry	3(g)	Installations for the manufacture of ceramic products by firing, in particular roofing tiles, bricks, refractory bricks, tiles, stoneware or porcelain	HU.EEA/39833.FACILITY	Wienerberger Téglaipari Zrt.	20.003249	47.176747	Abony	Chlorine and inorganic compounds (as HCl)	15700.0	2007	1	0
109021	Hungary	5	Waste and wastewater management	5(a)	Installations for the recovery or disposal of hazardous waste	HU.EEA/39835.FACILITY	BÉM Borsodi Érc, Ásvány és Hulladékhasznosító Mű Zrt.	20.77275	48.16239	Sajókeresztúr	PCDD + PCDF (dioxins + furans) (as Teq)	0.00111	2007	1	0
109022	Hungary	5	Waste and wastewater management	5(a)	Installations for the recovery or disposal of hazardous waste	HU.EEA/39835.FACILITY	BÉM Borsodi Érc, Ásvány és Hulladékhasznosító Mű Zrt.	20.77275	48.16239	Sajókeresztúr	Polychlorinated biphenyls (PCBs)	0.145	2007	1	0
109023	Hungary	3	Mineral industry	3(c)(iii)	Installations for the production of cement clinker or lime in other furnaces	HU.EEA/39839.FACILITY	Kalcinátor Kft.	20.79433	48.06543	Miskolc	Carbon dioxide (CO2)	141000000.0	2007	1	0
109024	Hungary	3	Mineral industry	3(g)	Installations for the manufacture of ceramic products by firing, in particular roofing tiles, bricks, refractory bricks, tiles, stoneware or porcelain	HU.EEA/39840.FACILITY	Wienerberger Téglaipari Zrt.	21.387469	47.930796	Tiszavasvári	Benzene	1620.0	2007	1	0
109025	Hungary	3	Mineral industry	3(g)	Installations for the manufacture of ceramic products by firing, in particular roofing tiles, bricks, refractory bricks, tiles, stoneware or porcelain	HU.EEA/39840.FACILITY	Wienerberger Téglaipari Zrt.	21.387469	47.930796	Tiszavasvári	Chlorine and inorganic compounds (as HCl)	89800.0	2007	1	0
109026	Hungary	7	Intensive livestock production and aquaculture	7(a)(ii)	Installations for the intensive rearing of pigs with 2,000 places for production pigs (over 30 kg)	HU.EEA/39858.FACILITY	Sárvári Mezőgazdasági Rt.	17.027844	47.172975	Káld	Ammonia (NH3)	25300.0	2007	1	0
109027	Hungary	4	Chemical industry	4(e)	Installations using a chemical or biological process for the production on an industrial scale of basic pharmaceutical products	HU.EEA/39925.FACILITY	Cf Pharma Kft.	19.092212	47.455375	Budapest IX. kerület	Dichloromethane (DCM)	218000.0	2007	1	0
109028	Hungary	7	Intensive livestock production and aquaculture	7(a)(ii)	Installations for the intensive rearing of pigs with 2,000 places for production pigs (over 30 kg)	HU.EEA/39971.FACILITY	Adony-Hús Sertéstenyésztő, Hús- és Takarmány-feldolgozó és Szolgáltató Kft.	18.834312	47.122305	Adony	Ammonia (NH3)	25500.0	2007	1	0
109029	Hungary	7	Intensive livestock production and aquaculture	7(a)(ii)	Installations for the intensive rearing of pigs with 2,000 places for production pigs (over 30 kg)	HU.EEA/40017.FACILITY	Extra Pig Kft.	17.133747	47.964176	Rajka	Ammonia (NH3)	25800.0	2007	1	0
109030	Hungary	7	Intensive livestock production and aquaculture	7(a)(ii)	Installations for the intensive rearing of pigs with 2,000 places for production pigs (over 30 kg)	HU.EEA/40035.FACILITY	Négy-Határ 99 Kft.	20.743341	46.363035	Nagyér	Ammonia (NH3)	10500.0	2007	1	0
109031	Hungary	7	Intensive livestock production and aquaculture	7(a)(ii)	Installations for the intensive rearing of pigs with 2,000 places for production pigs (over 30 kg)	HU.EEA/40039.FACILITY	Tanaszek Kft.	17.329868	46.441564	Tapsony	Ammonia (NH3)	12900.0	2007	1	0
109032	Hungary	7	Intensive livestock production and aquaculture	7(a)(i)	Installations for the intensive rearing of poultry with 40,000 places for poultry	HU.EEA/40040.FACILITY	Várda-Baromfihús Termelő, Feldolgozó és Kereskedelmi Kft.	22.005441	48.184296	Pátroha	Ammonia (NH3)	28700.0	2007	1	0
109033	Hungary	7	Intensive livestock production and aquaculture	7(a)(ii)	Installations for the intensive rearing of pigs with 2,000 places for production pigs (over 30 kg)	HU.EEA/40045.FACILITY	Tisermix Sertéstenyésztő- és Hizlaló, Takarmánygyártó- és Forgalmazó Kft.	21.369135	47.932783	Tiszavasvári	Ammonia (NH3)	15700.0	2007	1	0
109034	Hungary	7	Intensive livestock production and aquaculture	7(a)(iii)	Installations for the intensive rearing of pigs with 750 places for sows	HU.EEA/40053.FACILITY	Pankota Pig Sertéstenyésztő Kft.	20.458449	46.578897	Nagymágocs	Ammonia (NH3)	15200.0	2007	1	0
109035	Hungary	7	Intensive livestock production and aquaculture	7(a)(ii)	Installations for the intensive rearing of pigs with 2,000 places for production pigs (over 30 kg)	HU.EEA/40054.FACILITY	Csanádpalota Sertés Hústermelő és Kereskedelmi Kft.	20.731677	46.264259	Csanádpalota	Ammonia (NH3)	10000.0	2007	1	0
109036	Hungary	7	Intensive livestock production and aquaculture	7(a)(ii)	Installations for the intensive rearing of pigs with 2,000 places for production pigs (over 30 kg)	HU.EEA/40057.FACILITY	Bafami Kft.	18.964292	46.437166	Bátya	Ammonia (NH3)	24300.0	2007	1	0
109037	Hungary	7	Intensive livestock production and aquaculture	7(a)(i)	Installations for the intensive rearing of poultry with 40,000 places for poultry	HU.EEA/40059.FACILITY	"""Kardos-Agro"" Állattenyésztő és Kereskedő Kft."	20.42251	46.470587	Kardos	Ammonia (NH3)	30400.0	2007	1	0
109038	Hungary	7	Intensive livestock production and aquaculture	7(a)(ii)	Installations for the intensive rearing of pigs with 2,000 places for production pigs (over 30 kg)	HU.EEA/40066.FACILITY	Dobozi Petőfi Petőfi Mezőgazdasági Termelő- és Szolgáltató Szövetkezet	21.247201	46.744393	Doboz	Ammonia (NH3)	19400.0	2007	1	0
109039	Hungary	7	Intensive livestock production and aquaculture	7(a)(ii)	Installations for the intensive rearing of pigs with 2,000 places for production pigs (over 30 kg)	HU.EEA/40067.FACILITY	Új Élet Mezőgazdasági Szövetkezet	20.567509	46.531494	Székkutas	Ammonia (NH3)	21900.0	2007	1	0
109040	Hungary	7	Intensive livestock production and aquaculture	7(a)(ii)	Installations for the intensive rearing of pigs with 2,000 places for production pigs (over 30 kg)	HU.EEA/40073.FACILITY	Beneti-Pig Kft.	20.057549	46.285746	Szeged	Ammonia (NH3)	18400.0	2007	1	0
109041	Hungary	7	Intensive livestock production and aquaculture	7(a)(ii)	Installations for the intensive rearing of pigs with 2,000 places for production pigs (over 30 kg)	HU.EEA/40074.FACILITY	Beneti-Pig Kft.	20.192978	46.27199	Szeged	Ammonia (NH3)	11800.0	2007	1	0
109042	Hungary	7	Intensive livestock production and aquaculture	7(a)(ii)	Installations for the intensive rearing of pigs with 2,000 places for production pigs (over 30 kg)	HU.EEA/40075.FACILITY	Agro-Duál Mezőgazdasági Termelő és Kereskedelmi Kft.	20.91507	46.823885	Mezőberény	Ammonia (NH3)	12300.0	2007	1	0
109043	Hungary	7	Intensive livestock production and aquaculture	7(a)(ii)	Installations for the intensive rearing of pigs with 2,000 places for production pigs (over 30 kg)	HU.EEA/40079.FACILITY	Dráva-Coop Zrt.	17.42341	45.956807	Barcs	Ammonia (NH3)	33800.0	2007	1	0
109044	Hungary	7	Intensive livestock production and aquaculture	7(a)(ii)	Installations for the intensive rearing of pigs with 2,000 places for production pigs (over 30 kg)	HU.EEA/40080.FACILITY	Nagyatád Szövetkezet	17.332188	46.07814	Háromfa	Ammonia (NH3)	21700.0	2007	1	0
109045	Hungary	7	Intensive livestock production and aquaculture	7(a)(i)	Installations for the intensive rearing of poultry with 40,000 places for poultry	HU.EEA/40082.FACILITY	Szentistváni Mezőgazdasági Szolgáltató és Kereskedő Szövetkezet	20.647867	47.845108	Mezőnyárád	Ammonia (NH3)	66600.0	2007	1	0
109046	Hungary	7	Intensive livestock production and aquaculture	7(a)(i)	Installations for the intensive rearing of poultry with 40,000 places for poultry	HU.EEA/40083.FACILITY	Nyugat Nyiregyházi Szövetkezet	21.684425	47.929626	Nyíregyháza	Ammonia (NH3)	21200.0	2007	1	0
109047	Hungary	7	Intensive livestock production and aquaculture	7(a)(ii)	Installations for the intensive rearing of pigs with 2,000 places for production pigs (over 30 kg)	HU.EEA/40084.FACILITY	Szalántai Mezőgazdasági Termelő, Szolgáltató és Kereskedelmi Zrt.	18.231074	45.96015	Szalánta	Ammonia (NH3)	12400.0	2007	1	0
109048	Hungary	7	Intensive livestock production and aquaculture	7(a)(i)	Installations for the intensive rearing of poultry with 40,000 places for poultry	HU.EEA/40085.FACILITY	Csibe-Top Kft.	19.517004	46.410518	Kiskunhalas	Ammonia (NH3)	23200.0	2007	1	0
109049	Hungary	7	Intensive livestock production and aquaculture	7(a)(ii)	Installations for the intensive rearing of pigs with 2,000 places for production pigs (over 30 kg)	HU.EEA/40086.FACILITY	Füzes-Farm 95 Kft.	20.373082	47.758644	Füzesabony	Ammonia (NH3)	24900.0	2007	1	0
109050	Hungary	7	Intensive livestock production and aquaculture	7(a)(ii)	Installations for the intensive rearing of pigs with 2,000 places for production pigs (over 30 kg)	HU.EEA/40087.FACILITY	Rába Tak-Hús Rt.	17.085625	47.444776	Rábakecöl	Ammonia (NH3)	18900.0	2007	1	0
109051	Hungary	7	Intensive livestock production and aquaculture	7(a)(iii)	Installations for the intensive rearing of pigs with 750 places for sows	HU.EEA/40088.FACILITY	Fiorács Kft.	18.014946	47.733195	Ács	Ammonia (NH3)	19400.0	2007	1	0
109052	Hungary	7	Intensive livestock production and aquaculture	7(a)(ii)	Installations for the intensive rearing of pigs with 2,000 places for production pigs (over 30 kg)	HU.EEA/40090.FACILITY	Fiorács Kft.	18.170729	47.67622	Mocsa	Ammonia (NH3)	22200.0	2007	1	0
109053	Hungary	7	Intensive livestock production and aquaculture	7(a)(ii)	Installations for the intensive rearing of pigs with 2,000 places for production pigs (over 30 kg)	HU.EEA/40091.FACILITY	Fiorács Kft.	17.133111	47.772795	Jánossomorja	Ammonia (NH3)	14000.0	2007	1	0
109054	Hungary	7	Intensive livestock production and aquaculture	7(a)(ii)	Installations for the intensive rearing of pigs with 2,000 places for production pigs (over 30 kg)	HU.EEA/40096.FACILITY	Szigethát Mezőgazdasági, Kereskedelmi és Szolgáltató Kft.	20.909025	47.632243	Egyek	Ammonia (NH3)	11200.0	2007	1	0
109055	Hungary	7	Intensive livestock production and aquaculture	7(a)(ii)	Installations for the intensive rearing of pigs with 2,000 places for production pigs (over 30 kg)	HU.EEA/40099.FACILITY	Agroprodukt ZRT.	17.380409	47.317262	Mihályháza	Ammonia (NH3)	26300.0	2007	1	0
109056	Hungary	7	Intensive livestock production and aquaculture	7(a)(ii)	Installations for the intensive rearing of pigs with 2,000 places for production pigs (over 30 kg)	HU.EEA/40103.FACILITY	Táncsics Mgsz. Nagyalásony	17.321908	47.211622	Vid	Ammonia (NH3)	15400.0	2007	1	0
109057	Hungary	7	Intensive livestock production and aquaculture	7(a)(ii)	Installations for the intensive rearing of pigs with 2,000 places for production pigs (over 30 kg)	HU.EEA/40104.FACILITY	Dalmand Zrt.	18.187811	46.421571	Dombóvár	Ammonia (NH3)	26200.0	2007	1	0
109058	Hungary	7	Intensive livestock production and aquaculture	7(a)(ii)	Installations for the intensive rearing of pigs with 2,000 places for production pigs (over 30 kg)	HU.EEA/40105.FACILITY	Dalmand Zrt.	18.164216	46.429315	Dombóvár	Ammonia (NH3)	15300.0	2007	1	0
109059	Hungary	7	Intensive livestock production and aquaculture	7(a)(ii)	Installations for the intensive rearing of pigs with 2,000 places for production pigs (over 30 kg)	HU.EEA/40108.FACILITY	Orosházi Béke Agrár-Szövetkezet	20.646353	46.589972	Orosháza	Ammonia (NH3)	27700.0	2007	1	0
109060	Hungary	7	Intensive livestock production and aquaculture	7(a)(ii)	Installations for the intensive rearing of pigs with 2,000 places for production pigs (over 30 kg)	HU.EEA/40114.FACILITY	Magvető 2003 Kft.	17.69536	46.077967	Merenye	Ammonia (NH3)	12200.0	2007	1	0
109061	Hungary	7	Intensive livestock production and aquaculture	7(a)(i)	Installations for the intensive rearing of poultry with 40,000 places for poultry	HU.EEA/40115.FACILITY	Tápi-Csipogó Kft.	17.826376	47.524858	Táp	Ammonia (NH3)	23800.0	2007	1	0
109062	Hungary	7	Intensive livestock production and aquaculture	7(a)(ii)	Installations for the intensive rearing of pigs with 2,000 places for production pigs (over 30 kg)	HU.EEA/40118.FACILITY	Tedej Agrártermelő és Szolgáltató Rt.	21.410041	47.902519	Hajdúnánás	Ammonia (NH3)	51000.0	2007	1	0
109063	Hungary	7	Intensive livestock production and aquaculture	7(a)(ii)	Installations for the intensive rearing of pigs with 2,000 places for production pigs (over 30 kg)	HU.EEA/40126.FACILITY	R & J Termelő, Kereskedő és Szolgáltató Kft.	21.497106	47.566397	Debrecen	Ammonia (NH3)	13600.0	2007	1	0
109064	Hungary	7	Intensive livestock production and aquaculture	7(a)(ii)	Installations for the intensive rearing of pigs with 2,000 places for production pigs (over 30 kg)	HU.EEA/40127.FACILITY	R & J Termelö, Kereskedö és szolgáltató Kft.	21.164015	47.333062	Püspökladány	Ammonia (NH3)	21200.0	2007	1	0
109065	Hungary	7	Intensive livestock production and aquaculture	7(a)(iii)	Installations for the intensive rearing of pigs with 750 places for sows	HU.EEA/40128.FACILITY	Tiszántúli Vágósertés Kft.	21.32717	47.638578	Balmazújváros	Ammonia (NH3)	10300.0	2007	1	0
109066	Hungary	7	Intensive livestock production and aquaculture	7(a)(ii)	Installations for the intensive rearing of pigs with 2,000 places for production pigs (over 30 kg)	HU.EEA/40131.FACILITY	Hungária-Barnak Kft.	16.904706	46.714686	Pölöske	Ammonia (NH3)	15500.0	2007	1	0
109067	Hungary	7	Intensive livestock production and aquaculture	7(a)(i)	Installations for the intensive rearing of poultry with 40,000 places for poultry	HU.EEA/40136.FACILITY	Piros Arany Szövetkezet	18.954154	46.478182	Bátya	Ammonia (NH3)	11200.0	2007	1	0
109068	Hungary	7	Intensive livestock production and aquaculture	7(a)(i)	Installations for the intensive rearing of poultry with 40,000 places for poultry	HU.EEA/40137.FACILITY	Érsekcsanádi Mezőgazdasági Szövetkezet	19.00319	46.235386	Érsekcsanád	Ammonia (NH3)	30300.0	2007	1	0
109069	Hungary	7	Intensive livestock production and aquaculture	7(a)(ii)	Installations for the intensive rearing of pigs with 2,000 places for production pigs (over 30 kg)	HU.EEA/40138.FACILITY	Avi-Coop Termelő, Kereskedelmi és Szolgáltató Kft.	20.546703	47.151219	Kuncsorba	Ammonia (NH3)	19500.0	2007	1	0
109070	Hungary	7	Intensive livestock production and aquaculture	7(a)(i)	Installations for the intensive rearing of poultry with 40,000 places for poultry	HU.EEA/40141.FACILITY	Kastélydomb Kft.	19.797966	46.725189	Kiskunfélegyháza	Ammonia (NH3)	32100.0	2007	1	0
109071	Hungary	7	Intensive livestock production and aquaculture	7(a)(ii)	Installations for the intensive rearing of pigs with 2,000 places for production pigs (over 30 kg)	HU.EEA/40144.FACILITY	Kaluterm Kft.	20.250218	46.938314	Cibakháza	Ammonia (NH3)	38200.0	2007	1	0
109072	Hungary	7	Intensive livestock production and aquaculture	7(a)(ii)	Installations for the intensive rearing of pigs with 2,000 places for production pigs (over 30 kg)	HU.EEA/40163.FACILITY	Narivo Állattenyésztő és Növénytermelő Kft.	20.914734	47.971657	Muhi	Ammonia (NH3)	27500.0	2007	1	0
109073	Hungary	7	Intensive livestock production and aquaculture	7(a)(ii)	Installations for the intensive rearing of pigs with 2,000 places for production pigs (over 30 kg)	HU.EEA/40166.FACILITY	Fiorács Kft.	17.904185	47.64669	Bana	Ammonia (NH3)	10100.0	2007	1	0
109074	Hungary	7	Intensive livestock production and aquaculture	7(a)(ii)	Installations for the intensive rearing of pigs with 2,000 places for production pigs (over 30 kg)	HU.EEA/40168.FACILITY	Bátagro Bt.	18.697923	46.186928	Bátaszék	Ammonia (NH3)	18800.0	2007	1	0
109075	Hungary	7	Intensive livestock production and aquaculture	7(a)(ii)	Installations for the intensive rearing of pigs with 2,000 places for production pigs (over 30 kg)	HU.EEA/40171.FACILITY	Berettyóújfalui Dózsa Mezőgazdasági Szövetkezet	21.542922	47.244636	Berettyóújfalu	Ammonia (NH3)	12000.0	2007	1	0
109076	Hungary	7	Intensive livestock production and aquaculture	7(a)(i)	Installations for the intensive rearing of poultry with 40,000 places for poultry	HU.EEA/40179.FACILITY	Táp Kft.	16.867919	47.39577	Sajtoskál	Ammonia (NH3)	76400.0	2007	1	0
109077	Hungary	7	Intensive livestock production and aquaculture	7(a)(ii)	Installations for the intensive rearing of pigs with 2,000 places for production pigs (over 30 kg)	HU.EEA/40183.FACILITY	Farmer-Kiss Kft.	16.879672	46.400884	Szepetnek	Ammonia (NH3)	49800.0	2007	1	0
109078	Hungary	7	Intensive livestock production and aquaculture	7(a)(ii)	Installations for the intensive rearing of pigs with 2,000 places for production pigs (over 30 kg)	HU.EEA/40185.FACILITY	Hajdunánási Béke Mezőgazdasági Szövetkezet	21.413836	47.780522	Hajdúnánás	Ammonia (NH3)	14800.0	2007	1	0
109079	Hungary	7	Intensive livestock production and aquaculture	7(a)(ii)	Installations for the intensive rearing of pigs with 2,000 places for production pigs (over 30 kg)	HU.EEA/40186.FACILITY	Sylvain Kft.	20.176576	46.169592	Tiszasziget	Ammonia (NH3)	13000.0	2007	1	0
109080	Hungary	7	Intensive livestock production and aquaculture	7(a)(ii)	Installations for the intensive rearing of pigs with 2,000 places for production pigs (over 30 kg)	HU.EEA/40187.FACILITY	Atek Agrár Termelö Kft.	20.28469	47.623827	Heves	Ammonia (NH3)	12400.0	2007	1	0
109081	Hungary	7	Intensive livestock production and aquaculture	7(a)(i)	Installations for the intensive rearing of poultry with 40,000 places for poultry	HU.EEA/40193.FACILITY	Erdei Farm Bt.	19.80675	47.79299	Gyöngyöspata	Ammonia (NH3)	17200.0	2007	1	0
109082	Hungary	7	Intensive livestock production and aquaculture	7(a)(i)	Installations for the intensive rearing of poultry with 40,000 places for poultry	HU.EEA/40199.FACILITY	Ebesi Pulykahízlaló Kft.	21.508371	47.461263	Ebes	Ammonia (NH3)	80300.0	2007	1	0
109083	Hungary	7	Intensive livestock production and aquaculture	7(a)(i)	Installations for the intensive rearing of poultry with 40,000 places for poultry	HU.EEA/40200.FACILITY	Baromfi-Coop Kft.	21.338307	47.296624	Földes	Ammonia (NH3)	73900.0	2007	1	0
109084	Hungary	7	Intensive livestock production and aquaculture	7(a)(i)	Installations for the intensive rearing of poultry with 40,000 places for poultry	HU.EEA/40202.FACILITY	TÁP Takarmányfuvarozási és Baromfitenyésztő Kft.	19.811379	46.351239	Üllés	Ammonia (NH3)	42800.0	2007	1	0
109085	Hungary	7	Intensive livestock production and aquaculture	7(a)(i)	Installations for the intensive rearing of poultry with 40,000 places for poultry	HU.EEA/40205.FACILITY	Bodzási Brojler Agrár Termelő és Műszaki Fejlesztési Eredményeket Hasznosító Kft.	20.94553	46.525038	Medgyesbodzás	Ammonia (NH3)	29700.0	2007	1	0
109086	Hungary	7	Intensive livestock production and aquaculture	7(a)(i)	Installations for the intensive rearing of poultry with 40,000 places for poultry	HU.EEA/40206.FACILITY	Thermo-Strukt Kft.	19.534751	46.357888	Balotaszállás	Ammonia (NH3)	13900.0	2007	1	0
109087	Hungary	7	Intensive livestock production and aquaculture	7(a)(i)	Installations for the intensive rearing of poultry with 40,000 places for poultry	HU.EEA/40209.FACILITY	B-Broiler Kft.	17.77819	47.660011	Bőny	Ammonia (NH3)	39100.0	2007	1	0
109088	Hungary	7	Intensive livestock production and aquaculture	7(a)(i)	Installations for the intensive rearing of poultry with 40,000 places for poultry	HU.EEA/40210.FACILITY	Gallus Bársonyos	17.714635	47.690097	Győr	Ammonia (NH3)	54100.0	2007	1	0
109089	Hungary	7	Intensive livestock production and aquaculture	7(a)(i)	Installations for the intensive rearing of poultry with 40,000 places for poultry	HU.EEA/40211.FACILITY	Sága Foods Zrt.	17.165223	47.107711	Jánosháza	Ammonia (NH3)	46500.0	2007	1	0
109090	Hungary	7	Intensive livestock production and aquaculture	7(a)(i)	Installations for the intensive rearing of poultry with 40,000 places for poultry	HU.EEA/40212.FACILITY	Bács-Tak Kft.	19.36409	46.202622	Mélykút	Ammonia (NH3)	34200.0	2007	1	0
109091	Hungary	7	Intensive livestock production and aquaculture	7(a)(ii)	Installations for the intensive rearing of pigs with 2,000 places for production pigs (over 30 kg)	HU.EEA/40214.FACILITY	"Debreceni ""Löszhát"" Kft."	21.529623	47.50845	Ebes	Ammonia (NH3)	23900.0	2007	1	0
109092	Hungary	7	Intensive livestock production and aquaculture	7(a)(i)	Installations for the intensive rearing of poultry with 40,000 places for poultry	HU.EEA/40221.FACILITY	DDA Dél-Dunántúli Agár Kft.	17.32428	46.077992	Háromfa	Ammonia (NH3)	14000.0	2007	1	0
109093	Hungary	7	Intensive livestock production and aquaculture	7(a)(ii)	Installations for the intensive rearing of pigs with 2,000 places for production pigs (over 30 kg)	HU.EEA/40223.FACILITY	Fleisch-Hyb Kft.	18.092764	45.899501	Hegyszentmárton	Ammonia (NH3)	12500.0	2007	1	0
109094	Hungary	7	Intensive livestock production and aquaculture	7(a)(ii)	Installations for the intensive rearing of pigs with 2,000 places for production pigs (over 30 kg)	HU.EEA/40226.FACILITY	Sylvain Kft.	20.137551	47.579098	Jászszentandrás	Ammonia (NH3)	11900.0	2007	1	0
109095	Hungary	7	Intensive livestock production and aquaculture	7(a)(i)	Installations for the intensive rearing of poultry with 40,000 places for poultry	HU.EEA/40227.FACILITY	Sága Foods Zrt.	16.563632	47.144932	Ják	Ammonia (NH3)	32600.0	2007	1	0
109096	Hungary	7	Intensive livestock production and aquaculture	7(a)(i)	Installations for the intensive rearing of poultry with 40,000 places for poultry	HU.EEA/40229.FACILITY	Sága Foods Zrt.	16.574716	47.0098	Körmend	Ammonia (NH3)	44800.0	2007	1	0
109097	Hungary	7	Intensive livestock production and aquaculture	7(a)(i)	Installations for the intensive rearing of poultry with 40,000 places for poultry	HU.EEA/40234.FACILITY	Sága Foods Zrt.	16.606471	47.287357	Gencsapáti	Ammonia (NH3)	18700.0	2007	1	0
109098	Hungary	7	Intensive livestock production and aquaculture	7(a)(ii)	Installations for the intensive rearing of pigs with 2,000 places for production pigs (over 30 kg)	HU.EEA/40240.FACILITY	Hungaropig Kereskedelmi és Ügynöki Kft.	21.603411	47.160349	Mezőpeterd	Ammonia (NH3)	17600.0	2007	1	0
109099	Hungary	7	Intensive livestock production and aquaculture	7(a)(ii)	Installations for the intensive rearing of pigs with 2,000 places for production pigs (over 30 kg)	HU.EEA/40246.FACILITY	Avi-Coop Termelő, Kereskedelmi és Szolgáltató Kft.	20.470997	47.185759	Törökszentmikl	Ammonia (NH3)	29700.0	2007	1	0
109100	Hungary	7	Intensive livestock production and aquaculture	7(a)(ii)	Installations for the intensive rearing of pigs with 2,000 places for production pigs (over 30 kg)	HU.EEA/40247.FACILITY	Újpetrei Gazdák Szövetkezete	18.367111	45.944166	Újpetre	Ammonia (NH3)	26300.0	2007	1	0
109101	Hungary	7	Intensive livestock production and aquaculture	7(a)(ii)	Installations for the intensive rearing of pigs with 2,000 places for production pigs (over 30 kg)	HU.EEA/40250.FACILITY	Mongol-Agrár Zrt.	20.633876	47.033529	Mezőtúr	Ammonia (NH3)	19300.0	2007	1	0
109102	Hungary	7	Intensive livestock production and aquaculture	7(a)(i)	Installations for the intensive rearing of poultry with 40,000 places for poultry	HU.EEA/40256.FACILITY	Kastélydomb Kft.	19.351744	46.68951	Páhi	Ammonia (NH3)	33800.0	2007	1	0
109103	Hungary	7	Intensive livestock production and aquaculture	7(a)(ii)	Installations for the intensive rearing of pigs with 2,000 places for production pigs (over 30 kg)	HU.EEA/40258.FACILITY	Beneti-Pig Kft.	20.223011	46.254542	Szeged	Ammonia (NH3)	16600.0	2007	1	0
109104	Hungary	7	Intensive livestock production and aquaculture	7(a)(ii)	Installations for the intensive rearing of pigs with 2,000 places for production pigs (over 30 kg)	HU.EEA/40259.FACILITY	Beneti-Pig Kft.	20.528922	46.623472	Árpádhalom	Ammonia (NH3)	13800.0	2007	1	0
109105	Hungary	7	Intensive livestock production and aquaculture	7(a)(i)	Installations for the intensive rearing of poultry with 40,000 places for poultry	HU.EEA/40271.FACILITY	Dobos Baromfitenyésztő Kft.	20.287302	46.952592	Tiszaföldvár	Ammonia (NH3)	55300.0	2007	1	0
109106	Hungary	7	Intensive livestock production and aquaculture	7(a)(i)	Installations for the intensive rearing of poultry with 40,000 places for poultry	HU.EEA/40272.FACILITY	Dobos Baromfitenyésztő Kft.	20.269061	46.985276	Tiszaföldvár	Ammonia (NH3)	12500.0	2007	1	0
109107	Hungary	7	Intensive livestock production and aquaculture	7(a)(iii)	Installations for the intensive rearing of pigs with 750 places for sows	HU.EEA/40274.FACILITY	Jászberényi Kossuth Zrt.	19.953259	47.486022	Jászberény	Ammonia (NH3)	14400.0	2007	1	0
109108	Hungary	7	Intensive livestock production and aquaculture	7(a)(ii)	Installations for the intensive rearing of pigs with 2,000 places for production pigs (over 30 kg)	HU.EEA/40275.FACILITY	Búzakalász Mezőgazdasági Szövetkezet	19.415133	46.221287	Mélykút	Ammonia (NH3)	39700.0	2007	1	0
109109	Hungary	7	Intensive livestock production and aquaculture	7(a)(ii)	Installations for the intensive rearing of pigs with 2,000 places for production pigs (over 30 kg)	HU.EEA/40276.FACILITY	Pig And Hús Kft.	22.257404	48.115652	Vásárosnamény	Ammonia (NH3)	19400.0	2007	1	0
109110	Hungary	7	Intensive livestock production and aquaculture	7(a)(i)	Installations for the intensive rearing of poultry with 40,000 places for poultry	HU.EEA/40279.FACILITY	Sága Foods Zrt.	16.929402	47.222679	Ikervár	Ammonia (NH3)	74100.0	2007	1	0
109111	Hungary	7	Intensive livestock production and aquaculture	7(a)(i)	Installations for the intensive rearing of poultry with 40,000 places for poultry	HU.EEA/40280.FACILITY	Sága Foods Zrt.	17.048881	47.073019	Bögöte	Ammonia (NH3)	63800.0	2007	1	0
109112	Hungary	7	Intensive livestock production and aquaculture	7(a)(ii)	Installations for the intensive rearing of pigs with 2,000 places for production pigs (over 30 kg)	HU.EEA/40282.FACILITY	Baranya Farm Kft.	17.699912	45.966817	Kétújfalu	Ammonia (NH3)	15100.0	2007	1	0
109113	Hungary	7	Intensive livestock production and aquaculture	7(a)(i)	Installations for the intensive rearing of poultry with 40,000 places for poultry	HU.EEA/40283.FACILITY	Kovács és Kovács Kft.	18.590586	46.122672	Szebény	Ammonia (NH3)	12600.0	2007	1	0
109114	Hungary	7	Intensive livestock production and aquaculture	7(a)(ii)	Installations for the intensive rearing of pigs with 2,000 places for production pigs (over 30 kg)	HU.EEA/40285.FACILITY	"""Sallai Imre"" Mezőgazdasági Szövetkezet, Besnyő"	18.776143	47.191123	Besnyő	Ammonia (NH3)	18300.0	2007	1	0
109115	Hungary	7	Intensive livestock production and aquaculture	7(a)(ii)	Installations for the intensive rearing of pigs with 2,000 places for production pigs (over 30 kg)	HU.EEA/40288.FACILITY	Bácsinnov Kft.	17.342946	46.409926	Böhönye	Ammonia (NH3)	60000.0	2007	1	0
109116	Hungary	7	Intensive livestock production and aquaculture	7(a)(ii)	Installations for the intensive rearing of pigs with 2,000 places for production pigs (over 30 kg)	HU.EEA/40290.FACILITY	Agro-Produkt Mezőgazdasági és Húsipari Kft.	19.678407	47.874563	Pásztó	Ammonia (NH3)	31300.0	2007	1	0
109117	Hungary	7	Intensive livestock production and aquaculture	7(a)(ii)	Installations for the intensive rearing of pigs with 2,000 places for production pigs (over 30 kg)	HU.EEA/40293.FACILITY	Mátra Kincse 2002. Kft.	19.897923	47.76257	Gyöngyös	Ammonia (NH3)	10100.0	2007	1	0
109118	Hungary	7	Intensive livestock production and aquaculture	7(a)(ii)	Installations for the intensive rearing of pigs with 2,000 places for production pigs (over 30 kg)	HU.EEA/40295.FACILITY	Lajta-Hanság Zrt.	17.245678	47.848522	Mosonmagyaróvár	Ammonia (NH3)	38700.0	2007	1	0
109119	Hungary	7	Intensive livestock production and aquaculture	7(a)(ii)	Installations for the intensive rearing of pigs with 2,000 places for production pigs (over 30 kg)	HU.EEA/40300.FACILITY	Pápa-Ser Kft.	19.308709	46.182235	Tataháza	Ammonia (NH3)	11500.0	2007	1	0
109120	Hungary	7	Intensive livestock production and aquaculture	7(a)(i)	Installations for the intensive rearing of poultry with 40,000 places for poultry	HU.EEA/40302.FACILITY	Bács-Tak Kft.	19.129743	46.262353	Rém	Ammonia (NH3)	46500.0	2007	1	0
109121	Hungary	7	Intensive livestock production and aquaculture	7(a)(ii)	Installations for the intensive rearing of pigs with 2,000 places for production pigs (over 30 kg)	HU.EEA/40303.FACILITY	Agro-Milch Mezőgazdasági és Szolgáltató Kft.	17.840745	47.460283	Lázi	Ammonia (NH3)	11100.0	2007	1	0
109122	Hungary	7	Intensive livestock production and aquaculture	7(a)(i)	Installations for the intensive rearing of poultry with 40,000 places for poultry	HU.EEA/40304.FACILITY	"""He-Si-Pu"" Bt."	16.958382	47.056103	Csehimindszent	Ammonia (NH3)	15400.0	2007	1	0
109123	Hungary	7	Intensive livestock production and aquaculture	7(a)(ii)	Installations for the intensive rearing of pigs with 2,000 places for production pigs (over 30 kg)	HU.EEA/40307.FACILITY	Belvárdgyulai Zrt.	18.337125	46.038391	Magyarsarlós	Ammonia (NH3)	27000.0	2007	1	0
109124	Hungary	7	Intensive livestock production and aquaculture	7(a)(i)	Installations for the intensive rearing of poultry with 40,000 places for poultry	HU.EEA/40310.FACILITY	Broiterm Kft.	18.583024	45.856287	Bezedek	Ammonia (NH3)	32800.0	2007	1	0
109125	Hungary	7	Intensive livestock production and aquaculture	7(a)(ii)	Installations for the intensive rearing of pigs with 2,000 places for production pigs (over 30 kg)	HU.EEA/40313.FACILITY	Aka-Hyb Általános Vállalkozási Kft.	18.325292	46.039467	Szemely	Ammonia (NH3)	17600.0	2007	1	0
109126	Hungary	7	Intensive livestock production and aquaculture	7(a)(ii)	Installations for the intensive rearing of pigs with 2,000 places for production pigs (over 30 kg)	HU.EEA/40320.FACILITY	Dan-Farm (Hungary)Kft.	20.61616	46.599698	Orosháza	Ammonia (NH3)	20000.0	2007	1	0
109127	Hungary	7	Intensive livestock production and aquaculture	7(a)(ii)	Installations for the intensive rearing of pigs with 2,000 places for production pigs (over 30 kg)	HU.EEA/40321.FACILITY	Karakai István	17.330474	47.45162	Rábaszentandrás	Ammonia (NH3)	11900.0	2007	1	0
109128	Hungary	7	Intensive livestock production and aquaculture	7(a)(ii)	Installations for the intensive rearing of pigs with 2,000 places for production pigs (over 30 kg)	HU.EEA/40324.FACILITY	Fitoprodukt Kft.	17.282482	46.668734	Balatonszentgyörgy	Ammonia (NH3)	16200.0	2007	1	0
109129	Hungary	7	Intensive livestock production and aquaculture	7(a)(i)	Installations for the intensive rearing of poultry with 40,000 places for poultry	HU.EEA/40328.FACILITY	Szalai Krisztián	18.4238	47.302383	Zámoly	Ammonia (NH3)	16800.0	2007	1	0
109130	Hungary	7	Intensive livestock production and aquaculture	7(a)(ii)	Installations for the intensive rearing of pigs with 2,000 places for production pigs (over 30 kg)	HU.EEA/40329.FACILITY	Fiorács Kft.	18.127529	47.075045	Papkeszi	Ammonia (NH3)	53700.0	2007	1	0
109131	Hungary	7	Intensive livestock production and aquaculture	7(a)(ii)	Installations for the intensive rearing of pigs with 2,000 places for production pigs (over 30 kg)	HU.EEA/40331.FACILITY	Mikepércsi Kft.	21.612159	47.434143	Mikepércs	Ammonia (NH3)	16500.0	2007	1	0
109132	Hungary	7	Intensive livestock production and aquaculture	7(a)(ii)	Installations for the intensive rearing of pigs with 2,000 places for production pigs (over 30 kg)	HU.EEA/40332.FACILITY	R & J Termelő, Kereskedő és Szolgáltató Kft.	21.464364	47.479815	Ebes	Ammonia (NH3)	22200.0	2007	1	0
109133	Hungary	7	Intensive livestock production and aquaculture	7(a)(i)	Installations for the intensive rearing of poultry with 40,000 places for poultry	HU.EEA/40335.FACILITY	Patár Mezögazdasági, Termelő, Szolgáltató és Kereskedelmi Rt.	18.342179	47.564328	Környe	Ammonia (NH3)	17300.0	2007	1	0
109134	Hungary	7	Intensive livestock production and aquaculture	7(a)(ii)	Installations for the intensive rearing of pigs with 2,000 places for production pigs (over 30 kg)	HU.EEA/40343.FACILITY	R & J Termelő, Kereskedő és Szolgáltató Kft.	20.240911	47.795853	Aldebrő	Ammonia (NH3)	24100.0	2007	1	0
109135	Hungary	7	Intensive livestock production and aquaculture	7(a)(i)	Installations for the intensive rearing of poultry with 40,000 places for poultry	HU.EEA/40345.FACILITY	Csiron Termelő és Kereskedelmi Kft.	18.974121	47.26102	Szigetcsép	Ammonia (NH3)	18500.0	2007	1	0
109136	Hungary	7	Intensive livestock production and aquaculture	7(a)(i)	Installations for the intensive rearing of poultry with 40,000 places for poultry	HU.EEA/40351.FACILITY	Kóbor Tamás	16.323906	46.979917	Szentgotthárd	Ammonia (NH3)	16900.0	2007	1	0
109137	Hungary	7	Intensive livestock production and aquaculture	7(a)(i)	Installations for the intensive rearing of poultry with 40,000 places for poultry	HU.EEA/40352.FACILITY	Nemes Nagy Zsolt	19.88651	46.343572	Forráskút	Ammonia (NH3)	11100.0	2007	1	0
109138	Hungary	7	Intensive livestock production and aquaculture	7(a)(i)	Installations for the intensive rearing of poultry with 40,000 places for poultry	HU.EEA/40355.FACILITY	Bóly Mezőgazdasági Termelő és Kereskedelmi Zrt.	18.653241	46.013989	Mohács	Ammonia (NH3)	23100.0	2007	1	0
109139	Hungary	7	Intensive livestock production and aquaculture	7(a)(i)	Installations for the intensive rearing of poultry with 40,000 places for poultry	HU.EEA/40358.FACILITY	Tóth László	17.575655	47.564303	Győrszemere	Ammonia (NH3)	78400.0	2007	1	0
109140	Hungary	7	Intensive livestock production and aquaculture	7(a)(i)	Installations for the intensive rearing of poultry with 40,000 places for poultry	HU.EEA/40359.FACILITY	Uralgo Termelő-Szolgáltató és Kereskedelmi Kft.	22.288609	47.782556	Terem	Ammonia (NH3)	33600.0	2007	1	0
109141	Hungary	7	Intensive livestock production and aquaculture	7(a)(iii)	Installations for the intensive rearing of pigs with 750 places for sows	HU.EEA/40362.FACILITY	Mántelki Parasztgazdaság Zrt.	19.7161	47.348725	Tápióbicske	Ammonia (NH3)	18100.0	2007	1	0
109142	Hungary	7	Intensive livestock production and aquaculture	7(a)(ii)	Installations for the intensive rearing of pigs with 2,000 places for production pigs (over 30 kg)	HU.EEA/40370.FACILITY	Dombegyházi Agrár Zrt.	21.136106	46.342494	Dombegyház	Ammonia (NH3)	21600.0	2007	1	0
109143	Hungary	3	Mineral industry	3(g)	Installations for the manufacture of ceramic products by firing, in particular roofing tiles, bricks, refractory bricks, tiles, stoneware or porcelain	HU.EEA/456.FACILITY	Wienerberger Téglaipari Zrt.	18.691797	46.198622	Bátaszék	Chlorine and inorganic compounds (as HCl)	16100.0	2007	1	0
109144	Hungary	1	Energy sector	1(c)	Thermal power stations and other combustion installations	HU.EEA/5688.FACILITY	AES Tisza Erőmű Kft.	21.075933	47.916826	Tiszaújváros	Arsenic and compounds (as As)	23.5	2007	1	0
109145	Hungary	1	Energy sector	1(c)	Thermal power stations and other combustion installations	HU.EEA/5688.FACILITY	AES Tisza Erőmű Kft.	21.075933	47.916826	Tiszaújváros	Carbon dioxide (CO2)	1220000000.0	2007	1	0
109146	Hungary	1	Energy sector	1(c)	Thermal power stations and other combustion installations	HU.EEA/5688.FACILITY	AES Tisza Erőmű Kft.	21.075933	47.916826	Tiszaújváros	Nitrogen oxides (NOX)	960000.0	2007	1	0
109147	Hungary	1	Energy sector	1(c)	Thermal power stations and other combustion installations	HU.EEA/5688.FACILITY	AES Tisza Erőmű Kft.	21.075933	47.916826	Tiszaújváros	Sulphur oxides (SOX)	239000.0	2007	1	0
109148	Hungary	3	Mineral industry	3(c)(i)	Installations for the production of cement clinker in rotary kilns	HU.EEA/5698.FACILITY	Holcim Hungária Zrt.	20.796874	48.065306	Miskolc	Carbon dioxide (CO2)	552000000.0	2007	1	0
109149	Hungary	3	Mineral industry	3(c)(i)	Installations for the production of cement clinker in rotary kilns	HU.EEA/5698.FACILITY	Holcim Hungária Zrt.	20.796874	48.065306	Miskolc	Mercury and compounds (as Hg)	47.0	2007	1	0
109150	Hungary	3	Mineral industry	3(c)(i)	Installations for the production of cement clinker in rotary kilns	HU.EEA/5698.FACILITY	Holcim Hungária Zrt.	20.796874	48.065306	Miskolc	Nitrogen oxides (NOX)	611000.0	2007	1	0
109151	Hungary	1	Energy sector	1(c)	Thermal power stations and other combustion installations	HU.EEA/5699.FACILITY	AES Borsodi Energetikai Kft.	20.684352	48.235402	Berente	Carbon dioxide (CO2)	738000000.0	2007	1	0
109152	Hungary	1	Energy sector	1(c)	Thermal power stations and other combustion installations	HU.EEA/5699.FACILITY	AES Borsodi Energetikai Kft.	20.684352	48.235402	Berente	Chlorine and inorganic compounds (as HCl)	11100.0	2007	1	0
109153	Hungary	1	Energy sector	1(c)	Thermal power stations and other combustion installations	HU.EEA/5699.FACILITY	AES Borsodi Energetikai Kft.	20.684352	48.235402	Berente	Nitrogen oxides (NOX)	877000.0	2007	1	0
109154	Hungary	1	Energy sector	1(c)	Thermal power stations and other combustion installations	HU.EEA/5699.FACILITY	AES Borsodi Energetikai Kft.	20.684352	48.235402	Berente	Sulphur oxides (SOX)	816000.0	2007	1	0
109155	Hungary	1	Energy sector	1(c)	Thermal power stations and other combustion installations	HU.EEA/5704.FACILITY	AES Borsodi Energetikai Kft.	21.055306	47.904814	Tiszaújváros	Carbon dioxide (CO2)	468000000.0	2007	1	0
109156	Hungary	1	Energy sector	1(c)	Thermal power stations and other combustion installations	HU.EEA/5704.FACILITY	AES Borsodi Energetikai Kft.	21.055306	47.904814	Tiszaújváros	Nitrogen oxides (NOX)	830000.0	2007	1	0
109157	Hungary	1	Energy sector	1(c)	Thermal power stations and other combustion installations	HU.EEA/5704.FACILITY	AES Borsodi Energetikai Kft.	21.055306	47.904814	Tiszaújváros	Sulphur oxides (SOX)	918000.0	2007	1	0
109158	Hungary	1	Energy sector	1(c)	Thermal power stations and other combustion installations	HU.EEA/6072.FACILITY	DKCE Kft.	21.630453	47.518647	Debrecen	Carbon dioxide (CO2)	261000000.0	2007	1	0
109159	Hungary	1	Energy sector	1(c)	Thermal power stations and other combustion installations	HU.EEA/6072.FACILITY	DKCE Kft.	21.630453	47.518647	Debrecen	Nitrogen oxides (NOX)	175000.0	2007	1	0
109160	Hungary	7	Intensive livestock production and aquaculture	7(a)(i)	Installations for the intensive rearing of poultry with 40,000 places for poultry	HU.EEA/75277.FACILITY	Agricola Kft.	18.155695	47.726449	Komárom	Ammonia (NH3)	34300.0	2007	1	0
109161	Hungary	7	Intensive livestock production and aquaculture	7(a)(i)	Installations for the intensive rearing of poultry with 40,000 places for poultry	HU.EEA/75422.FACILITY	Agricola Kft.	18.386251	47.612892	Vértesszőlős	Ammonia (NH3)	31100.0	2007	1	0
109162	Hungary	7	Intensive livestock production and aquaculture	7(a)(i)	Installations for the intensive rearing of poultry with 40,000 places for poultry	HU.EEA/75519.FACILITY	Baracsi Béla	21.455143	47.656106	Hajdúböszörmén	Ammonia (NH3)	12100.0	2007	1	0
109163	Hungary	3	Mineral industry	3(e)	Installations for the manufacture of glass, including glass fibre	HU.EEA/852.FACILITY	R-Glass Hungary Kft.	19.801919	48.097769	Salgótarján	Nitrogen oxides (NOX)	127000.0	2007	1	0
109164	Hungary	3	Mineral industry	3(f)	Installations for melting mineral substances, including the production of mineral fibres	HU.OKIR/100067287.FACILITY	Rockwool Hungary Kft	17.409943	46.885353	Tapolca	Sulphur oxides (SOX)	167000.0	2007	1	0
109165	Hungary	7	Intensive livestock production and aquaculture	7(a)(ii)	Installations for the intensive rearing of pigs with 2,000 places for production pigs (over 30 kg)	HU.OKIR/100213921.FACILITY	Végh Róbert	16.99181	46.9714	Pakod	Ammonia (NH3)	23500.0	2007	1	0
109166	Hungary	7	Intensive livestock production and aquaculture	7(a)(ii)	Installations for the intensive rearing of pigs with 2,000 places for production pigs (over 30 kg)	HU.OKIR/100214102.FACILITY	Backó Mezőgazdasági Termelő Kft	16.953305	46.659176	Pötréte	Ammonia (NH3)	18000.0	2007	1	0
109167	Hungary	7	Intensive livestock production and aquaculture	7(a)(ii)	Installations for the intensive rearing of pigs with 2,000 places for production pigs (over 30 kg)	HU.OKIR/100241821.FACILITY	Mezőhegyesi Sertéstenyésztő és Értékesítő Kft.	20.908039	46.331358	Mezőhegyes	Ammonia (NH3)	28000.0	2007	1	0
109168	Hungary	7	Intensive livestock production and aquaculture	7(a)(ii)	Installations for the intensive rearing of pigs with 2,000 places for production pigs (over 30 kg)	HU.OKIR/100241843.FACILITY	Mezőhegyesi Sertéstenyésztő és Értékesítő Kft.	20.917255	46.317645	Mezőhegyes	Ammonia (NH3)	14700.0	2007	1	0
109169	Hungary	7	Intensive livestock production and aquaculture	7(a)(ii)	Installations for the intensive rearing of pigs with 2,000 places for production pigs (over 30 kg)	HU.OKIR/100245335.FACILITY	Nagisz Zrt.	21.157878	47.429853	Nádudvar	Ammonia (NH3)	68300.0	2007	1	0
109170	Hungary	7	Intensive livestock production and aquaculture	7(a)(ii)	Installations for the intensive rearing of pigs with 2,000 places for production pigs (over 30 kg)	HU.OKIR/100246930.FACILITY	"""Molnárfarm-2000"" Kft."	20.387633	47.115384	Tiszatenyő	Ammonia (NH3)	18200.0	2007	1	0
109171	Hungary	7	Intensive livestock production and aquaculture	7(a)(ii)	Installations for the intensive rearing of pigs with 2,000 places for production pigs (over 30 kg)	HU.OKIR/100250052.FACILITY	HAGE Hajdúsági Agráripari Zártkörűen Működő Részvénytársaság	20.859854	47.281608	Karcag	Ammonia (NH3)	21400.0	2007	1	0
109172	Hungary	1	Energy sector	1(c)	Thermal power stations and other combustion installations	HU.OKIR/100278137.FACILITY	FGSZ Zrt.	22.488093	48.197076	Beregdaróc	Nitrogen oxides (NOX)	306000.0	2007	1	0
109173	Hungary	7	Intensive livestock production and aquaculture	7(a)(i)	Installations for the intensive rearing of poultry with 40,000 places for poultry	HU.OKIR/100281676.FACILITY	ATAK-MADA Kft.	22.018494	48.191875	Rétközberencs	Ammonia (NH3)	22300.0	2007	1	0
109174	Hungary	7	Intensive livestock production and aquaculture	7(a)(iii)	Installations for the intensive rearing of pigs with 750 places for sows	HU.OKIR/100282145.FACILITY	TRIAGRO NEMZETKÖZI MEZŐGAZDASÁGI KFT	22.433347	47.960152	Tunyogmatolcs	Ammonia (NH3)	12400.0	2007	1	0
109175	Hungary	7	Intensive livestock production and aquaculture	7(a)(ii)	Installations for the intensive rearing of pigs with 2,000 places for production pigs (over 30 kg)	HU.OKIR/100285386.FACILITY	Telekhalmi Major Kft.	21.564068	47.032156	Magyarhomorog	Ammonia (NH3)	12400.0	2007	1	0
109176	Hungary	7	Intensive livestock production and aquaculture	7(a)(i)	Installations for the intensive rearing of poultry with 40,000 places for poultry	HU.OKIR/100287379.FACILITY	Nagisz Zrt.	21.327885	47.627064	Balmazújváros	Ammonia (NH3)	21100.0	2007	1	0
109177	Hungary	7	Intensive livestock production and aquaculture	7(a)(ii)	Installations for the intensive rearing of pigs with 2,000 places for production pigs (over 30 kg)	HU.OKIR/100291468.FACILITY	"Pápa-Ser Kft.""f.a."""	19.025303	46.728901	Harta	Ammonia (NH3)	23300.0	2007	1	0
109178	Hungary	7	Intensive livestock production and aquaculture	7(a)(i)	Installations for the intensive rearing of poultry with 40,000 places for poultry	HU.OKIR/100294078.FACILITY	Csabatáj Zrt.	21.005466	46.6993	Békéscsaba	Ammonia (NH3)	22200.0	2007	1	0
109179	Hungary	7	Intensive livestock production and aquaculture	7(a)(i)	Installations for the intensive rearing of poultry with 40,000 places for poultry	HU.OKIR/100296533.FACILITY	MIZSETÁP KFT.	19.572196	47.075734	Lajosmizse	Ammonia (NH3)	25800.0	2007	1	0
109180	Hungary	2	Production and processing of metals	2(c)(i)	Installations for the processing of ferrous metals, Hot-rolling mills	HU.OKIR/100296843.FACILITY	ÓAM Kft.	20.33348	48.242967	Ózd	Carbon monoxide (CO)	1050000.0	2007	1	0
109181	Hungary	7	Intensive livestock production and aquaculture	7(a)(i)	Installations for the intensive rearing of poultry with 40,000 places for poultry	HU.OKIR/100297714.FACILITY	Palotabozsoki Zrt.	18.638834	46.113286	Palotabozsok	Ammonia (NH3)	53800.0	2007	1	0
109182	Hungary	7	Intensive livestock production and aquaculture	7(a)(ii)	Installations for the intensive rearing of pigs with 2,000 places for production pigs (over 30 kg)	HU.OKIR/100297862.FACILITY	Bóly Zrt.	18.455409	45.819233	Beremend	Ammonia (NH3)	35600.0	2007	1	0
109183	Hungary	7	Intensive livestock production and aquaculture	7(a)(i)	Installations for the intensive rearing of poultry with 40,000 places for poultry	HU.OKIR/100298283.FACILITY	Avifarm Kft.	20.685083	46.530438	Orosháza	Ammonia (NH3)	16400.0	2007	1	0
109184	Hungary	2	Production and processing of metals	2(f)	Installations for surface treatment of metals and plastic materials using an electrolytic or chemical process	HU.OKIR/100298401.FACILITY	Vt Metal Kft.	18.437475	47.206803	Székesfehérvár	Chlorine and inorganic compounds (as HCl)	10700.0	2007	1	0
109185	Hungary	2	Production and processing of metals	2(f)	Installations for surface treatment of metals and plastic materials using an electrolytic or chemical process	HU.OKIR/100298401.FACILITY	Vt Metal Kft.	18.437475	47.206803	Székesfehérvár	Nickel and compounds (as Ni)	128.0	2007	1	0
109186	Hungary	7	Intensive livestock production and aquaculture	7(a)(ii)	Installations for the intensive rearing of pigs with 2,000 places for production pigs (over 30 kg)	HU.OKIR/100304517.FACILITY	Pankotai Agrár Zrt.	20.25318	46.689409	Szentes	Ammonia (NH3)	42600.0	2007	1	0
109187	Hungary	7	Intensive livestock production and aquaculture	7(a)(ii)	Installations for the intensive rearing of pigs with 2,000 places for production pigs (over 30 kg)	HU.OKIR/100304573.FACILITY	Pécsváradi Agrover Zrt.	18.374538	46.132954	Pécsvárad	Ammonia (NH3)	50100.0	2007	1	0
109188	Hungary	7	Intensive livestock production and aquaculture	7(a)(i)	Installations for the intensive rearing of poultry with 40,000 places for poultry	HU.OKIR/100306670.FACILITY	Nagisz Zrt.	21.302697	47.313445	Tetétlen	Ammonia (NH3)	22100.0	2007	1	0
109189	Hungary	7	Intensive livestock production and aquaculture	7(a)(ii)	Installations for the intensive rearing of pigs with 2,000 places for production pigs (over 30 kg)	HU.OKIR/100308043.FACILITY	Jászapáti 2000. Mg. Zrt.	20.102246	47.502604	Jászapáti	Ammonia (NH3)	11000.0	2007	1	0
109190	Hungary	3	Mineral industry	3(a)	Underground mining and related operations	HU.OKIR/100308168.FACILITY	MOL Magyar Olaj- és Gázipari Nyrt.	20.195426	46.301205	Algyő	Carbon dioxide (CO2)	124000000.0	2007	1	0
109191	Hungary	3	Mineral industry	3(a)	Underground mining and related operations	HU.OKIR/100308168.FACILITY	MOL Magyar Olaj- és Gázipari Nyrt.	20.195426	46.301205	Algyő	Nitrogen oxides (NOX)	116000.0	2007	1	0
109192	Hungary	7	Intensive livestock production and aquaculture	7(a)(ii)	Installations for the intensive rearing of pigs with 2,000 places for production pigs (over 30 kg)	HU.OKIR/100311135.FACILITY	Eeba Kft.	20.818514	46.753406	Kondoros	Ammonia (NH3)	19500.0	2007	1	0
109193	Hungary	7	Intensive livestock production and aquaculture	7(a)(ii)	Installations for the intensive rearing of pigs with 2,000 places for production pigs (over 30 kg)	HU.OKIR/100312394.FACILITY	"Zsellér"" Kft."	19.530288	46.427186	Kiskunhalas	Ammonia (NH3)	17100.0	2007	1	0
109194	Hungary	1	Energy sector	1(c)	Thermal power stations and other combustion installations	HU.OKIR/100312660.FACILITY	Győr-Szol Zrt.	17.671181	47.682212	Győr	Carbon dioxide (CO2)	126000000.0	2007	1	0
109195	Hungary	1	Energy sector	1(c)	Thermal power stations and other combustion installations	HU.OKIR/100312660.FACILITY	Győr-Szol Zrt.	17.671181	47.682212	Győr	Nitrogen oxides (NOX)	234000.0	2007	1	0
109196	Hungary	7	Intensive livestock production and aquaculture	7(a)(ii)	Installations for the intensive rearing of pigs with 2,000 places for production pigs (over 30 kg)	HU.OKIR/100315476.FACILITY	Búzakalász Mg. Szövetkezet	19.397232	46.227029	Mélykút	Ammonia (NH3)	39900.0	2007	1	0
109197	Hungary	7	Intensive livestock production and aquaculture	7(a)(i)	Installations for the intensive rearing of poultry with 40,000 places for poultry	HU.OKIR/100316004.FACILITY	PONCSÁK BÉLA, EGYÉNI VÁLLALKOZÓ	22.055563	48.162724	Ajak	Ammonia (NH3)	23500.0	2007	1	0
109198	Hungary	7	Intensive livestock production and aquaculture	7(a)(i)	Installations for the intensive rearing of poultry with 40,000 places for poultry	HU.OKIR/100316691.FACILITY	Baromfi-Coop Kft.	22.088795	48.00582	Baktalórántháza	Ammonia (NH3)	13400.0	2007	1	0
109199	Hungary	7	Intensive livestock production and aquaculture	7(a)(ii)	Installations for the intensive rearing of pigs with 2,000 places for production pigs (over 30 kg)	HU.OKIR/100317920.FACILITY	Mohácsi Hungaro-Seghers Kft.	18.671359	45.979949	Mohács	Ammonia (NH3)	19000.0	2007	1	0
109200	Hungary	1	Energy sector	1(c)	Thermal power stations and other combustion installations	HU.OKIR/100318695.FACILITY	Pannon Hőerőmű Zrt.	18.263048	46.064103	Pécs	Carbon dioxide (CO2)	685000000.0	2007	1	0
109201	Hungary	1	Energy sector	1(c)	Thermal power stations and other combustion installations	HU.OKIR/100318695.FACILITY	Pannon Hőerőmű Zrt.	18.263048	46.064103	Pécs	Nitrogen oxides (NOX)	465000.0	2007	1	0
109202	Hungary	7	Intensive livestock production and aquaculture	7(a)(ii)	Installations for the intensive rearing of pigs with 2,000 places for production pigs (over 30 kg)	HU.OKIR/100318972.FACILITY	Dávodi Augusztus 20 Zrt.	18.959519	46.035934	Dávod	Ammonia (NH3)	13900.0	2007	1	0
109203	Hungary	7	Intensive livestock production and aquaculture	7(a)(i)	Installations for the intensive rearing of poultry with 40,000 places for poultry	HU.OKIR/100325671.FACILITY	Csele-Delta Kft.	18.619623	46.077546	Görcsönydoboka	Ammonia (NH3)	32900.0	2007	1	0
109204	Hungary	8	Animal and vegetable products from the food and beverage sector	8(b)(ii)	Treatment and processing intended for the production of food and beverage products from vegetable raw materials	HU.OKIR/100326726.FACILITY	Bunge Zrt.	20.29166	47.040111	Martfű	Nitrogen oxides (NOX)	119000.0	2007	1	0
109205	Hungary	1	Energy sector	1(c)	Thermal power stations and other combustion installations	HU.OKIR/100327538.FACILITY	Mátrai Erőmű Zrt.	20.066722	47.789759	Visonta	Carbon dioxide (CO2)	6680000000.0	2007	1	0
109206	Hungary	1	Energy sector	1(c)	Thermal power stations and other combustion installations	HU.OKIR/100327538.FACILITY	Mátrai Erőmű Zrt.	20.066722	47.789759	Visonta	Carbon monoxide (CO)	2980000.0	2007	1	0
109207	Hungary	1	Energy sector	1(c)	Thermal power stations and other combustion installations	HU.OKIR/100327538.FACILITY	Mátrai Erőmű Zrt.	20.066722	47.789759	Visonta	Chlorine and inorganic compounds (as HCl)	72500.0	2007	1	0
109208	Hungary	1	Energy sector	1(c)	Thermal power stations and other combustion installations	HU.OKIR/100327538.FACILITY	Mátrai Erőmű Zrt.	20.066722	47.789759	Visonta	Nitrogen oxides (NOX)	4910000.0	2007	1	0
109209	Hungary	1	Energy sector	1(c)	Thermal power stations and other combustion installations	HU.OKIR/100327538.FACILITY	Mátrai Erőmű Zrt.	20.066722	47.789759	Visonta	Sulphur oxides (SOX)	4360000.0	2007	1	0
109210	Hungary	7	Intensive livestock production and aquaculture	7(a)(ii)	Installations for the intensive rearing of pigs with 2,000 places for production pigs (over 30 kg)	HU.OKIR/100328317.FACILITY	Göcsej Pig Kft.	16.770508	46.76476	Ormándlak	Ammonia (NH3)	25800.0	2007	1	0
109211	Hungary	4	Chemical industry	4(a)(iv)	Chemical installations for the production on an industrial scale of basic organic chemicals: Nitrogenous hydrocarbons such as amines, amides, nitrous compounds, nitro compounds or nitrate compounds, nitriles, cyanates, isocyanates	HU.OKIR/100329026.FACILITY	Borsodchem Zrt	20.665556	48.241389	Berente	Mercury and compounds (as Hg)	54.7	2007	1	0
109212	Hungary	4	Chemical industry	4(a)(iv)	Chemical installations for the production on an industrial scale of basic organic chemicals: Nitrogenous hydrocarbons such as amines, amides, nitrous compounds, nitro compounds or nitrate compounds, nitriles, cyanates, isocyanates	HU.OKIR/100329026.FACILITY	Borsodchem Zrt	20.665556	48.241389	Berente	Vinyl chloride	7490.0	2007	1	0
109213	Hungary	3	Mineral industry	3(c)(i)	Installations for the production of cement clinker in rotary kilns	HU.OKIR/100329299.FACILITY	Duna-Dráva Cement Kft.	18.398833	45.811201	Beremend	Carbon dioxide (CO2)	692000000.0	2007	1	0
109214	Hungary	3	Mineral industry	3(c)(i)	Installations for the production of cement clinker in rotary kilns	HU.OKIR/100329299.FACILITY	Duna-Dráva Cement Kft.	18.398833	45.811201	Beremend	Carbon monoxide (CO)	2340000.0	2007	1	0
109215	Hungary	3	Mineral industry	3(c)(i)	Installations for the production of cement clinker in rotary kilns	HU.OKIR/100329299.FACILITY	Duna-Dráva Cement Kft.	18.398833	45.811201	Beremend	Mercury and compounds (as Hg)	32.7	2007	1	0
109216	Hungary	3	Mineral industry	3(c)(i)	Installations for the production of cement clinker in rotary kilns	HU.OKIR/100329299.FACILITY	Duna-Dráva Cement Kft.	18.398833	45.811201	Beremend	Nitrogen oxides (NOX)	1590000.0	2007	1	0
109217	Hungary	7	Intensive livestock production and aquaculture	7(a)(ii)	Installations for the intensive rearing of pigs with 2,000 places for production pigs (over 30 kg)	HU.OKIR/100332277.FACILITY	Örménykúti Petőfi Kft.	20.731333	46.820595	Örménykút	Ammonia (NH3)	19900.0	2007	1	0
109218	Hungary	7	Intensive livestock production and aquaculture	7(a)(ii)	Installations for the intensive rearing of pigs with 2,000 places for production pigs (over 30 kg)	HU.OKIR/100332462.FACILITY	HAGE Hajdúsági Agráripari Zártkörűen Működő Részvénytársaság	21.034576	46.648149	Békéscsaba	Ammonia (NH3)	23800.0	2007	1	0
109219	Hungary	7	Intensive livestock production and aquaculture	7(a)(ii)	Installations for the intensive rearing of pigs with 2,000 places for production pigs (over 30 kg)	HU.OKIR/100332705.FACILITY	Pig-Trade Kereskedelmi És Szolgáltato Kft	21.19319	47.086864	Füzesgyarmat	Ammonia (NH3)	25900.0	2007	1	0
109220	Hungary	4	Chemical industry	4(b)(ii)	Chemical installations for the production on an industrial scale of basic inorganic chemicals: Acids, such as chromic acid, hydrofluoric acid, phosphoric acid, nitric acid, hydrochloric acid, sulphuric acid, oleum, sulphurous acids	HU.OKIR/100333012.FACILITY	Bige Holding Kereskedelmi és Termelő Kft.	20.140359	47.134293	Szolnok	Sulphur oxides (SOX)	284000.0	2007	1	0
109221	Hungary	3	Mineral industry	3(c)(ii)	Installations for the production of lime in rotary kilns	HU.OKIR/100333274.FACILITY	Carmeuse Hungária Kft.	18.403853	45.806534	Beremend	Carbon dioxide (CO2)	120000000.0	2007	1	0
109222	Hungary	3	Mineral industry	3(e)	Installations for the manufacture of glass, including glass fibre	HU.OKIR/100340995.FACILITY	O-I Manufacturing Magyarország Kft.	20.687519	46.576688	Orosháza	Nitrogen oxides (NOX)	359000.0	2007	1	0
109223	Hungary	7	Intensive livestock production and aquaculture	7(a)(i)	Installations for the intensive rearing of poultry with 40,000 places for poultry	HU.OKIR/100342081.FACILITY	Baromfi-Coop Kft.	21.271563	47.330879	Kaba	Ammonia (NH3)	117000.0	2007	1	0
109224	Hungary	1	Energy sector	1(c)	Thermal power stations and other combustion installations	HU.OKIR/100345130.FACILITY	SZÉPHŐ ZRT.	18.435838	47.194227	Székesfehérvár	Sulphur oxides (SOX)	372000.0	2007	1	0
109225	Hungary	7	Intensive livestock production and aquaculture	7(a)(ii)	Installations for the intensive rearing of pigs with 2,000 places for production pigs (over 30 kg)	HU.OKIR/100349356.FACILITY	Sertáp Kft.	18.24699	46.298729	Alsómocsolád	Ammonia (NH3)	19600.0	2007	1	0
109226	Hungary	1	Energy sector	1(c)	Thermal power stations and other combustion installations	HU.OKIR/100351304.FACILITY	Bakonyi Erőmű Zrt.	17.558444	47.0956	Ajka	Carbon dioxide (CO2)	555000000.0	2007	1	0
109227	Hungary	1	Energy sector	1(c)	Thermal power stations and other combustion installations	HU.OKIR/100351304.FACILITY	Bakonyi Erőmű Zrt.	17.558444	47.0956	Ajka	Fluorine and inorganic compounds (as HF)	6000.0	2007	1	0
109228	Hungary	1	Energy sector	1(c)	Thermal power stations and other combustion installations	HU.OKIR/100351304.FACILITY	Bakonyi Erőmű Zrt.	17.558444	47.0956	Ajka	Nitrogen oxides (NOX)	511000.0	2007	1	0
109229	Hungary	1	Energy sector	1(c)	Thermal power stations and other combustion installations	HU.OKIR/100351304.FACILITY	Bakonyi Erőmű Zrt.	17.558444	47.0956	Ajka	Sulphur oxides (SOX)	471000.0	2007	1	0
109230	Hungary	1	Energy sector	1(c)	Thermal power stations and other combustion installations	HU.OKIR/100352666.FACILITY	Budapesti Erőmű Zrt.	19.103282	47.553512	Budapest 05. ker.	Carbon dioxide (CO2)	302000000.0	2007	1	0
109231	Hungary	1	Energy sector	1(c)	Thermal power stations and other combustion installations	HU.OKIR/100352666.FACILITY	Budapesti Erőmű Zrt.	19.103282	47.553512	Budapest 05. ker.	Nitrogen oxides (NOX)	137000.0	2007	1	0
109232	Hungary	7	Intensive livestock production and aquaculture	7(a)(ii)	Installations for the intensive rearing of pigs with 2,000 places for production pigs (over 30 kg)	HU.OKIR/100355092.FACILITY	Agro-City Zrt.	21.663487	47.987546	Nyíregyháza	Ammonia (NH3)	21100.0	2007	1	0
109233	Hungary	2	Production and processing of metals	2(e)(ii)	Installation for the smelting, including the alloying, of non-ferrous metals, including recovered products (refining, foundry casting, etc.)	HU.OKIR/100357812.FACILITY	Scepter Tatabánya Kft.	18.442723	47.55791	Tatabánya	PCDD + PCDF (dioxins + furans) (as Teq)	0.000864	2007	1	0
109234	Hungary	9	Other activities	9(c)	Installations for the surface treatment of substances, objects or products using organic solvents, in particular for dressing, printing, coating, degreasing, waterproofing, sizing, painting, cleaning or impregnating	HU.OKIR/100364647.FACILITY	Magyar Suzuki Zrt.	18.75363	47.76835	Esztergom	Non-methane volatile organic compounds (NMVOC)	655000.0	2007	1	0
109235	Hungary	4	Chemical industry	4(e)	Installations using a chemical or biological process for the production on an industrial scale of basic pharmaceutical products	HU.OKIR/100365493.FACILITY	Richter Gedeon Nyrt.	18.724868	47.724723	Dorog	Dichloromethane (DCM)	33100.0	2007	1	0
109236	Hungary	4	Chemical industry	4(e)	Installations using a chemical or biological process for the production on an industrial scale of basic pharmaceutical products	HU.OKIR/100365493.FACILITY	Richter Gedeon Nyrt.	18.724868	47.724723	Dorog	Non-methane volatile organic compounds (NMVOC)	220000.0	2007	1	0
109237	Hungary	4	Chemical industry	4(e)	Installations using a chemical or biological process for the production on an industrial scale of basic pharmaceutical products	HU.OKIR/100365493.FACILITY	Richter Gedeon Nyrt.	18.724868	47.724723	Dorog	Tetrachloroethylene	20.0	2007	1	0
109238	Hungary	3	Mineral industry	3(e)	Installations for the manufacture of glass, including glass fibre	HU.OKIR/100367833.FACILITY	Guardian Orosháza Korlátolt Felelősségű Társaság	20.686429	46.586773	Orosháza	Carbon dioxide (CO2)	124000000.0	2007	1	0
109239	Hungary	3	Mineral industry	3(e)	Installations for the manufacture of glass, including glass fibre	HU.OKIR/100367833.FACILITY	Guardian Orosháza Korlátolt Felelősségű Társaság	20.686429	46.586773	Orosháza	Nitrogen oxides (NOX)	1020000.0	2007	1	0
109240	Hungary	3	Mineral industry	3(e)	Installations for the manufacture of glass, including glass fibre	HU.OKIR/100367833.FACILITY	Guardian Orosháza Korlátolt Felelősségű Társaság	20.686429	46.586773	Orosháza	Sulphur oxides (SOX)	455000.0	2007	1	0
109241	Hungary	1	Energy sector	1(c)	Thermal power stations and other combustion installations	HU.OKIR/100368276.FACILITY	Dunamenti Erőmű Zrt.	18.918461	47.328165	Százhalombatta	Carbon dioxide (CO2)	2140000000.0	2007	1	0
109242	Hungary	1	Energy sector	1(c)	Thermal power stations and other combustion installations	HU.OKIR/100368276.FACILITY	Dunamenti Erőmű Zrt.	18.918461	47.328165	Százhalombatta	Nitrogen oxides (NOX)	2110000.0	2007	1	0
109243	Hungary	1	Energy sector	1(c)	Thermal power stations and other combustion installations	HU.OKIR/100368287.FACILITY	Alpiq Csepel Kft.	19.051854	47.428174	Budapest 21. ker.	Carbon dioxide (CO2)	965000000.0	2007	1	0
109244	Hungary	1	Energy sector	1(c)	Thermal power stations and other combustion installations	HU.OKIR/100368287.FACILITY	Alpiq Csepel Kft.	19.051854	47.428174	Budapest 21. ker.	Nitrogen oxides (NOX)	845000.0	2007	1	0
109245	Hungary	1	Energy sector	1(a)	Mineral oil and gas refineries	HU.OKIR/100368313.FACILITY	MOL Magyar Olaj- és Gázipari Nyrt.	18.896743	47.288829	Százhalombatta	Carbon dioxide (CO2)	1430000000.0	2007	1	0
109246	Hungary	1	Energy sector	1(a)	Mineral oil and gas refineries	HU.OKIR/100368313.FACILITY	MOL Magyar Olaj- és Gázipari Nyrt.	18.896743	47.288829	Százhalombatta	Nitrogen oxides (NOX)	1480000.0	2007	1	0
109247	Hungary	1	Energy sector	1(a)	Mineral oil and gas refineries	HU.OKIR/100368313.FACILITY	MOL Magyar Olaj- és Gázipari Nyrt.	18.896743	47.288829	Százhalombatta	Sulphur oxides (SOX)	1070000.0	2007	1	0
109248	Hungary	1	Energy sector	1(c)	Thermal power stations and other combustion installations	HU.OKIR/100372804.FACILITY	ISD POWER Kft.	18.943049	46.944216	Dunaújváros	Carbon dioxide (CO2)	1320000000.0	2007	1	0
109249	Hungary	1	Energy sector	1(c)	Thermal power stations and other combustion installations	HU.OKIR/100372804.FACILITY	ISD POWER Kft.	18.943049	46.944216	Dunaújváros	Nitrogen oxides (NOX)	309000.0	2007	1	0
109250	Hungary	1	Energy sector	1(c)	Thermal power stations and other combustion installations	HU.OKIR/100372804.FACILITY	ISD POWER Kft.	18.943049	46.944216	Dunaújváros	Sulphur oxides (SOX)	222000.0	2007	1	0
109251	Hungary	4	Chemical industry	4(a)(viii)	Chemical installations for the production on an industrial scale of basic organic chemicals: Basic plastic materials (polymers, synthetic fibres and cellulose-based fibres)	HU.OKIR/100376880.FACILITY	Zoltek Zrt.	18.573961	47.760262	Nyergesújfalu	Arsenic and compounds (as As)	52.0	2007	1	0
109252	Hungary	2	Production and processing of metals	2(e)(ii)	Installation for the smelting, including the alloying, of non-ferrous metals, including recovered products (refining, foundry casting, etc.)	HU.OKIR/100377441.FACILITY	Arconic-Köfém Kft.	18.467243	47.189803	Székesfehérvár	Chlorine and inorganic compounds (as HCl)	24600.0	2007	1	0
109253	Hungary	2	Production and processing of metals	2(e)(ii)	Installation for the smelting, including the alloying, of non-ferrous metals, including recovered products (refining, foundry casting, etc.)	HU.OKIR/100377441.FACILITY	Arconic-Köfém Kft.	18.467243	47.189803	Székesfehérvár	Nitrogen oxides (NOX)	351000.0	2007	1	0
109254	Hungary	1	Energy sector	1(c)	Thermal power stations and other combustion installations	HU.OKIR/100379364.FACILITY	Budapesti Erőmű Zrt.	19.055641	47.463509	Budapest 11. ker.	Carbon dioxide (CO2)	411000000.0	2007	1	0
109255	Hungary	1	Energy sector	1(c)	Thermal power stations and other combustion installations	HU.OKIR/100379364.FACILITY	Budapesti Erőmű Zrt.	19.055641	47.463509	Budapest 11. ker.	Nitrogen oxides (NOX)	314000.0	2007	1	0
109256	Hungary	7	Intensive livestock production and aquaculture	7(a)(ii)	Installations for the intensive rearing of pigs with 2,000 places for production pigs (over 30 kg)	HU.OKIR/100380005.FACILITY	Sombereki Zrt.	18.653753	46.098362	Somberek	Ammonia (NH3)	24000.0	2007	1	0
109257	Hungary	7	Intensive livestock production and aquaculture	7(a)(ii)	Installations for the intensive rearing of pigs with 2,000 places for production pigs (over 30 kg)	HU.OKIR/100380256.FACILITY	Rábapordányi Mezőgazdasági Zrt.	17.331664	47.56437	Rábapordány	Ammonia (NH3)	13100.0	2007	1	0
109258	Hungary	7	Intensive livestock production and aquaculture	7(a)(i)	Installations for the intensive rearing of poultry with 40,000 places for poultry	HU.OKIR/100381840.FACILITY	Gyermelyi Tojás Kft.	18.6424	47.615181	Gyermely	Ammonia (NH3)	66400.0	2007	1	0
109259	Hungary	7	Intensive livestock production and aquaculture	7(a)(ii)	Installations for the intensive rearing of pigs with 2,000 places for production pigs (over 30 kg)	HU.OKIR/100382445.FACILITY	Szigetvári Hús Kft.	17.828123	46.029934	Szigetvár	Ammonia (NH3)	24700.0	2007	1	0
109260	Hungary	7	Intensive livestock production and aquaculture	7(a)(ii)	Installations for the intensive rearing of pigs with 2,000 places for production pigs (over 30 kg)	HU.OKIR/100383888.FACILITY	Szajki Zrt.	18.614728	45.994497	Lánycsók	Ammonia (NH3)	13800.0	2007	1	0
109261	Hungary	7	Intensive livestock production and aquaculture	7(a)(ii)	Installations for the intensive rearing of pigs with 2,000 places for production pigs (over 30 kg)	HU.OKIR/100384999.FACILITY	Döbröközi Mg. Zrt.	18.30072	46.503135	Gyulaj	Ammonia (NH3)	18600.0	2007	1	0
109262	Hungary	7	Intensive livestock production and aquaculture	7(a)(ii)	Installations for the intensive rearing of pigs with 2,000 places for production pigs (over 30 kg)	HU.OKIR/100385000.FACILITY	Döbröközi Mg. Zrt.	18.229572	46.421441	Döbrököz	Ammonia (NH3)	23600.0	2007	1	0
109263	Hungary	1	Energy sector	1(c)	Thermal power stations and other combustion installations	HU.OKIR/100385055.FACILITY	Dorogi Erőmű Kft.	18.72642	47.723945	Dorog	Nitrogen oxides (NOX)	122000.0	2007	1	0
109264	Hungary	7	Intensive livestock production and aquaculture	7(a)(ii)	Installations for the intensive rearing of pigs with 2,000 places for production pigs (over 30 kg)	HU.OKIR/100386764.FACILITY	HAGE Hajdúsági Agráripari Zártkörűen Működő Részvénytársaság	21.350975	47.475188	Hajdúszoboszló	Ammonia (NH3)	85400.0	2007	1	0
109265	Hungary	4	Chemical industry	4(e)	Installations using a chemical or biological process for the production on an industrial scale of basic pharmaceutical products	HU.OKIR/100388067.FACILITY	Richter Gedeon Nyrt.	19.138885	47.473014	Budapest 10. ker.	Dichloromethane (DCM)	98000.0	2007	1	0
109266	Hungary	4	Chemical industry	4(e)	Installations using a chemical or biological process for the production on an industrial scale of basic pharmaceutical products	HU.OKIR/100388089.FACILITY	Chinoin Zrt.	19.091129	47.551107	Budapest 04. ker.	Dichloromethane (DCM)	24800.0	2007	1	0
109267	Hungary	4	Chemical industry	4(e)	Installations using a chemical or biological process for the production on an industrial scale of basic pharmaceutical products	HU.OKIR/100388089.FACILITY	Chinoin Zrt.	19.091129	47.551107	Budapest 04. ker.	Trichloromethane	1310.0	2007	1	0
109268	Hungary	4	Chemical industry	4(e)	Installations using a chemical or biological process for the production on an industrial scale of basic pharmaceutical products	HU.OKIR/100388090.FACILITY	Egis Gyógyszergyár Zrt.	19.156408	47.498301	Budapest 10. ker.	Dichloromethane (DCM)	209000.0	2007	1	0
109269	Hungary	7	Intensive livestock production and aquaculture	7(a)(ii)	Installations for the intensive rearing of pigs with 2,000 places for production pigs (over 30 kg)	HU.OKIR/100388104.FACILITY	TRIAGRO NEMZETKÖZI MEZŐGAZDASÁGI KFT	22.490706	47.976473	Fehérgyarmat	Ammonia (NH3)	18800.0	2007	1	0
109270	Hungary	7	Intensive livestock production and aquaculture	7(a)(ii)	Installations for the intensive rearing of pigs with 2,000 places for production pigs (over 30 kg)	HU.OKIR/100389363.FACILITY	Duna Gyöngye 2000 Mezőgazdasági Zrt.	18.741296	46.087049	Dunaszekcső	Ammonia (NH3)	20800.0	2007	1	0
109271	Hungary	7	Intensive livestock production and aquaculture	7(a)(ii)	Installations for the intensive rearing of pigs with 2,000 places for production pigs (over 30 kg)	HU.OKIR/100392123.FACILITY	Szabadszentkirályi Mg. Zrt.	18.040058	45.997457	Szabadszentkirály	Ammonia (NH3)	29000.0	2007	1	0
109272	Hungary	5	Waste and wastewater management	5(b)	Installations for the incineration of non-hazardous waste in the scope of Directive 2000/76/EC of the European Parliament and of the Council of 4 December 2000 on the incineration of waste	HU.OKIR/100392330.FACILITY	FKF Nonprofit Zrt.	19.133316	47.58225	Budapest 15. ker.	Chlorine and inorganic compounds (as HCl)	10400.0	2007	1	0
109273	Hungary	5	Waste and wastewater management	5(b)	Installations for the incineration of non-hazardous waste in the scope of Directive 2000/76/EC of the European Parliament and of the Council of 4 December 2000 on the incineration of waste	HU.OKIR/100392330.FACILITY	FKF Nonprofit Zrt.	19.133316	47.58225	Budapest 15. ker.	Nitrogen oxides (NOX)	265000.0	2007	1	0
109274	Hungary	4	Chemical industry	4(c)	Chemical installations for the production on an industrial scale of phosphorous, nitrogen or potassium based fertilisers (simple or compound fertilisers)	HU.OKIR/100392651.FACILITY	Nitrogénművek Zrt.	18.139487	47.158499	Pétfürdő	Ammonia (NH3)	362000.0	2007	1	0
109275	Hungary	4	Chemical industry	4(c)	Chemical installations for the production on an industrial scale of phosphorous, nitrogen or potassium based fertilisers (simple or compound fertilisers)	HU.OKIR/100392651.FACILITY	Nitrogénművek Zrt.	18.139487	47.158499	Pétfürdő	Carbon dioxide (CO2)	397000000.0	2007	1	0
109276	Hungary	4	Chemical industry	4(c)	Chemical installations for the production on an industrial scale of phosphorous, nitrogen or potassium based fertilisers (simple or compound fertilisers)	HU.OKIR/100392651.FACILITY	Nitrogénművek Zrt.	18.139487	47.158499	Pétfürdő	Carbon monoxide (CO)	883000.0	2007	1	0
109277	Hungary	4	Chemical industry	4(c)	Chemical installations for the production on an industrial scale of phosphorous, nitrogen or potassium based fertilisers (simple or compound fertilisers)	HU.OKIR/100392651.FACILITY	Nitrogénművek Zrt.	18.139487	47.158499	Pétfürdő	Nitrogen oxides (NOX)	550000.0	2007	1	0
109278	Hungary	4	Chemical industry	4(c)	Chemical installations for the production on an industrial scale of phosphorous, nitrogen or potassium based fertilisers (simple or compound fertilisers)	HU.OKIR/100392651.FACILITY	Nitrogénművek Zrt.	18.139487	47.158499	Pétfürdő	Nitrous oxide (N2O)	2920000.0	2007	1	0
109279	Hungary	4	Chemical industry	4(c)	Chemical installations for the production on an industrial scale of phosphorous, nitrogen or potassium based fertilisers (simple or compound fertilisers)	HU.OKIR/100392651.FACILITY	Nitrogénművek Zrt.	18.139487	47.158499	Pétfürdő	Particulate matter (PM10)	122000.0	2007	1	0
109280	Hungary	7	Intensive livestock production and aquaculture	7(a)(ii)	Installations for the intensive rearing of pigs with 2,000 places for production pigs (over 30 kg)	HU.OKIR/100393083.FACILITY	Bold Agro Kft.	21.540474	47.350986	Derecske	Ammonia (NH3)	15600.0	2007	1	0
109281	Hungary	1	Energy sector	1(c)	Thermal power stations and other combustion installations	HU.OKIR/100400015.FACILITY	Budapesti Erőmű Zrt.	19.164244	47.458005	Budapest 18. ker.	Carbon dioxide (CO2)	247000000.0	2007	1	0
109282	Hungary	3	Mineral industry	3(c)(i)	Installations for the production of cement clinker in rotary kilns	HU.OKIR/100401517.FACILITY	Duna-Dráva Cement Kft.	19.104605	47.811315	Vác	Carbon dioxide (CO2)	661000000.0	2007	1	0
109283	Hungary	7	Intensive livestock production and aquaculture	7(a)(ii)	Installations for the intensive rearing of pigs with 2,000 places for production pigs (over 30 kg)	HU.OKIR/100404633.FACILITY	Pankotai Agrár Zrt.	20.542896	46.662069	Eperjes	Ammonia (NH3)	25500.0	2007	1	0
109284	Hungary	7	Intensive livestock production and aquaculture	7(a)(ii)	Installations for the intensive rearing of pigs with 2,000 places for production pigs (over 30 kg)	HU.OKIR/100409144.FACILITY	Mester-Pig Sertéstenyésztő Kft	20.439606	46.941768	Mesterszállás	Ammonia (NH3)	14700.0	2007	1	0
109285	Hungary	7	Intensive livestock production and aquaculture	7(a)(ii)	Installations for the intensive rearing of pigs with 2,000 places for production pigs (over 30 kg)	HU.OKIR/100409281.FACILITY	Eeba Kft.	21.308919	46.935505	Vésztő	Ammonia (NH3)	18100.0	2007	1	0
109286	Hungary	4	Chemical industry	4(a)(viii)	Chemical installations for the production on an industrial scale of basic organic chemicals: Basic plastic materials (polymers, synthetic fibres and cellulose-based fibres)	HU.OKIR/100412328.FACILITY	MOL Petrolkémia Zrt.	21.033317	47.910679	Tiszaújváros	Nitrogen oxides (NOX)	618000.0	2007	1	0
109287	Hungary	7	Intensive livestock production and aquaculture	7(a)(i)	Installations for the intensive rearing of poultry with 40,000 places for poultry	HU.OKIR/100413107.FACILITY	Habar Baromfinevelö Kft	20.58117	46.895866	Szarvas	Ammonia (NH3)	31300.0	2007	1	0
109288	Hungary	7	Intensive livestock production and aquaculture	7(a)(i)	Installations for the intensive rearing of poultry with 40,000 places for poultry	HU.OKIR/100413141.FACILITY	Habar Baromfinevelö Kft	20.594513	46.889748	Szarvas	Ammonia (NH3)	31900.0	2007	1	0
109289	Hungary	7	Intensive livestock production and aquaculture	7(a)(ii)	Installations for the intensive rearing of pigs with 2,000 places for production pigs (over 30 kg)	HU.OKIR/100414573.FACILITY	Pig-Trade Kereskedelmi És Szolgáltato Kft	21.246762	47.10542	Füzesgyarmat	Ammonia (NH3)	11500.0	2007	1	0
109290	Hungary	7	Intensive livestock production and aquaculture	7(a)(ii)	Installations for the intensive rearing of pigs with 2,000 places for production pigs (over 30 kg)	HU.OKIR/100416625.FACILITY	Hajdúböszörményi Béke Mezőgazdasági Kft.	21.503862	47.739417	Hajdúböszörmény	Ammonia (NH3)	30500.0	2007	1	0
109291	Hungary	7	Intensive livestock production and aquaculture	7(a)(ii)	Installations for the intensive rearing of pigs with 2,000 places for production pigs (over 30 kg)	HU.OKIR/100422914.FACILITY	Hód-Mezőgazda Zrt.	20.273936	46.409693	Hódmezővásárhely	Ammonia (NH3)	23600.0	2007	1	0
109292	Hungary	7	Intensive livestock production and aquaculture	7(a)(ii)	Installations for the intensive rearing of pigs with 2,000 places for production pigs (over 30 kg)	HU.OKIR/100423092.FACILITY	Csorvási Gazdák Zrt	20.855107	46.61718	Gerendás	Ammonia (NH3)	19400.0	2007	1	0
109293	Hungary	2	Production and processing of metals	2(b)	Installations for the production of pig iron or steel (primary or secondary melting) including continuous casting	HU.OKIR/100423302.FACILITY	Isd Dunaferr Zrt.	18.940529	46.943314	Dunaújváros	Carbon dioxide (CO2)	1420000000.0	2007	1	0
109294	Hungary	2	Production and processing of metals	2(b)	Installations for the production of pig iron or steel (primary or secondary melting) including continuous casting	HU.OKIR/100423302.FACILITY	Isd Dunaferr Zrt.	18.940529	46.943314	Dunaújváros	Carbon monoxide (CO)	24500000.0	2007	1	0
109295	Hungary	2	Production and processing of metals	2(b)	Installations for the production of pig iron or steel (primary or secondary melting) including continuous casting	HU.OKIR/100423302.FACILITY	Isd Dunaferr Zrt.	18.940529	46.943314	Dunaújváros	Copper and compounds (as Cu)	5170.0	2007	1	0
109296	Hungary	2	Production and processing of metals	2(b)	Installations for the production of pig iron or steel (primary or secondary melting) including continuous casting	HU.OKIR/100423302.FACILITY	Isd Dunaferr Zrt.	18.940529	46.943314	Dunaújváros	Lead and compounds (as Pb)	806.0	2007	1	0
109297	Hungary	2	Production and processing of metals	2(b)	Installations for the production of pig iron or steel (primary or secondary melting) including continuous casting	HU.OKIR/100423302.FACILITY	Isd Dunaferr Zrt.	18.940529	46.943314	Dunaújváros	Nitrogen oxides (NOX)	481000.0	2007	1	0
109298	Hungary	2	Production and processing of metals	2(b)	Installations for the production of pig iron or steel (primary or secondary melting) including continuous casting	HU.OKIR/100423302.FACILITY	Isd Dunaferr Zrt.	18.940529	46.943314	Dunaújváros	Particulate matter (PM10)	426000.0	2007	1	0
109299	Hungary	2	Production and processing of metals	2(b)	Installations for the production of pig iron or steel (primary or secondary melting) including continuous casting	HU.OKIR/100423302.FACILITY	Isd Dunaferr Zrt.	18.940529	46.943314	Dunaújváros	PCDD + PCDF (dioxins + furans) (as Teq)	0.00561	2007	1	0
109300	Hungary	2	Production and processing of metals	2(b)	Installations for the production of pig iron or steel (primary or secondary melting) including continuous casting	HU.OKIR/100423302.FACILITY	Isd Dunaferr Zrt.	18.940529	46.943314	Dunaújváros	Sulphur oxides (SOX)	417000.0	2007	1	0
109301	Hungary	2	Production and processing of metals	2(b)	Installations for the production of pig iron or steel (primary or secondary melting) including continuous casting	HU.OKIR/100423302.FACILITY	Isd Dunaferr Zrt.	18.940529	46.943314	Dunaújváros	Zinc and compounds (as Zn)	1770.0	2007	1	0
109302	Hungary	7	Intensive livestock production and aquaculture	7(a)(ii)	Installations for the intensive rearing of pigs with 2,000 places for production pigs (over 30 kg)	HU.OKIR/100424424.FACILITY	Goldfood Kereskedö És Szolgáltato Kft	20.374477	46.512749	Szarvas	Ammonia (NH3)	19200.0	2007	1	0
109303	Hungary	7	Intensive livestock production and aquaculture	7(a)(i)	Installations for the intensive rearing of poultry with 40,000 places for poultry	HU.OKIR/100430458.FACILITY	Földesi Rákóczi Mezőgazdasági Kft	21.352679	47.299189	Földes	Ammonia (NH3)	21700.0	2007	1	0
109304	Hungary	1	Energy sector	1(c)	Thermal power stations and other combustion installations	HU.OKIR/100431466.FACILITY	Alteo Nyrt.	20.588358	48.226569	Kazincbarcika	Carbon dioxide (CO2)	225000000.0	2007	1	0
109305	Hungary	1	Energy sector	1(c)	Thermal power stations and other combustion installations	HU.OKIR/100431466.FACILITY	Alteo Nyrt.	20.588358	48.226569	Kazincbarcika	Nitrogen oxides (NOX)	112000.0	2007	1	0
109306	Hungary	7	Intensive livestock production and aquaculture	7(a)(ii)	Installations for the intensive rearing of pigs with 2,000 places for production pigs (over 30 kg)	HU.OKIR/100432795.FACILITY	Agrárgazdaság Mezögazdasági És Kereskedelmi Kft	21.502559	47.563861	Debrecen	Ammonia (NH3)	17200.0	2007	1	0
109307	Hungary	7	Intensive livestock production and aquaculture	7(a)(ii)	Installations for the intensive rearing of pigs with 2,000 places for production pigs (over 30 kg)	HU.OKIR/100434803.FACILITY	Városföldi Agrárgazdaság Zrt.	19.768286	46.835696	Városföld	Ammonia (NH3)	53900.0	2007	1	0
109308	Hungary	7	Intensive livestock production and aquaculture	7(a)(ii)	Installations for the intensive rearing of pigs with 2,000 places for production pigs (over 30 kg)	HU.OKIR/100437848.FACILITY	Green 2000 Kft.	19.053874	46.32601	Nemesnádudvar	Ammonia (NH3)	24900.0	2007	1	0
109309	Hungary	7	Intensive livestock production and aquaculture	7(a)(ii)	Installations for the intensive rearing of pigs with 2,000 places for production pigs (over 30 kg)	HU.OKIR/100444639.FACILITY	Hajdúböszörményi Mezőgazdasági Zártkörűen Működő Részvénytársaság	21.391822	47.716615	Hajdúböszörmény	Ammonia (NH3)	14400.0	2007	1	0
109310	Hungary	7	Intensive livestock production and aquaculture	7(a)(ii)	Installations for the intensive rearing of pigs with 2,000 places for production pigs (over 30 kg)	HU.OKIR/100445429.FACILITY	SZIKGÁT-FARM Korlátolt Felelősségű Társaság	21.580368	47.499734	Debrecen	Ammonia (NH3)	21400.0	2007	1	0
109311	Hungary	7	Intensive livestock production and aquaculture	7(a)(ii)	Installations for the intensive rearing of pigs with 2,000 places for production pigs (over 30 kg)	HU.OKIR/100450168.FACILITY	HAGE Hajdúsági Agráripari Zártkörűen Működő Részvénytársaság	21.280712	47.383228	Kaba	Ammonia (NH3)	41300.0	2007	1	0
109312	Hungary	8	Animal and vegetable products from the food and beverage sector	8(b)(ii)	Treatment and processing intended for the production of food and beverage products from vegetable raw materials	HU.OKIR/100452988.FACILITY	Hungrana Kft.	18.719789	47.085097	Szabadegyháza	Carbon dioxide (CO2)	143000000.0	2007	1	0
109313	Hungary	8	Animal and vegetable products from the food and beverage sector	8(b)(ii)	Treatment and processing intended for the production of food and beverage products from vegetable raw materials	HU.OKIR/100452988.FACILITY	Hungrana Kft.	18.719789	47.085097	Szabadegyháza	Nitrogen oxides (NOX)	188000.0	2007	1	0
109314	Hungary	7	Intensive livestock production and aquaculture	7(a)(ii)	Installations for the intensive rearing of pigs with 2,000 places for production pigs (over 30 kg)	HU.OKIR/100453273.FACILITY	Agro-M Zrt.	20.708272	46.532818	Orosháza	Ammonia (NH3)	37800.0	2007	1	0
109315	Hungary	7	Intensive livestock production and aquaculture	7(a)(ii)	Installations for the intensive rearing of pigs with 2,000 places for production pigs (over 30 kg)	HU.OKIR/100453619.FACILITY	HARDFARM Kft.	18.736528	46.755958	Németkér	Ammonia (NH3)	12100.0	2007	1	0
109316	Hungary	3	Mineral industry	3(g)	Installations for the manufacture of ceramic products by firing, in particular roofing tiles, bricks, refractory bricks, tiles, stoneware or porcelain	HU.OKIR/100453789.FACILITY	Leier Hungária Kft.	17.425107	47.071445	Devecser	Carbon monoxide (CO)	686000.0	2007	1	0
109317	Hungary	7	Intensive livestock production and aquaculture	7(a)(ii)	Installations for the intensive rearing of pigs with 2,000 places for production pigs (over 30 kg)	HU.OKIR/100456735.FACILITY	Sertéshus Termelö Kft	20.477227	46.30222	Földeák	Ammonia (NH3)	16600.0	2007	1	0
109318	Hungary	7	Intensive livestock production and aquaculture	7(a)(i)	Installations for the intensive rearing of poultry with 40,000 places for poultry	HU.OKIR/100460514.FACILITY	Tranzit - Ker zRt.	21.477732	47.865384	Hajdúnánás	Ammonia (NH3)	60200.0	2007	1	0
109319	Hungary	2	Production and processing of metals	2(f)	Installations for surface treatment of metals and plastic materials using an electrolytic or chemical process	HU.OKIR/100475493.FACILITY	DAK Kft	18.949033	46.94728	Dunaújváros	Zinc and compounds (as Zn)	1330.0	2007	1	0
109320	Hungary	1	Energy sector	1(d)	Coke ovens	HU.OKIR/100500821.FACILITY	ISD Kokszoló Kft.	18.937737	46.940316	Dunaújváros	Carbon dioxide (CO2)	284000000.0	2007	1	0
109321	Hungary	1	Energy sector	1(d)	Coke ovens	HU.OKIR/100500821.FACILITY	ISD Kokszoló Kft.	18.937737	46.940316	Dunaújváros	Nitrogen oxides (NOX)	298000.0	2007	1	0
109322	Hungary	1	Energy sector	1(d)	Coke ovens	HU.OKIR/100500821.FACILITY	ISD Kokszoló Kft.	18.937737	46.940316	Dunaújváros	Sulphur oxides (SOX)	528000.0	2007	1	0
109323	Hungary	7	Intensive livestock production and aquaculture	7(a)(ii)	Installations for the intensive rearing of pigs with 2,000 places for production pigs (over 30 kg)	HU.OKIR/100501013.FACILITY	Bácsalmási Agráripari ZRT.	19.352378	46.096279	Bácsalmás	Ammonia (NH3)	11100.0	2007	1	0
109324	Hungary	1	Energy sector	1(c)	Thermal power stations and other combustion installations	HU.OKIR/100501563.FACILITY	Sinergy Kft.	21.02302	47.91439	Tiszaújváros	Carbon dioxide (CO2)	173000000.0	2007	1	0
109325	Hungary	1	Energy sector	1(c)	Thermal power stations and other combustion installations	HU.OKIR/100501563.FACILITY	Sinergy Kft.	21.02302	47.91439	Tiszaújváros	Nitrogen oxides (NOX)	175000.0	2007	1	0
109326	Hungary	7	Intensive livestock production and aquaculture	7(a)(ii)	Installations for the intensive rearing of pigs with 2,000 places for production pigs (over 30 kg)	HU.OKIR/100503567.FACILITY	Kórógy Pig Kft.	20.407411	46.67956	Fábiánsebestyén	Ammonia (NH3)	38700.0	2007	1	0
109327	Hungary	7	Intensive livestock production and aquaculture	7(a)(i)	Installations for the intensive rearing of poultry with 40,000 places for poultry	HU.OKIR/100538662.FACILITY	Hercsi-Agro Kft.	18.818573	46.899441	Mezőfalva	Ammonia (NH3)	21800.0	2007	1	0
109328	Hungary	7	Intensive livestock production and aquaculture	7(a)(ii)	Installations for the intensive rearing of pigs with 2,000 places for production pigs (over 30 kg)	HU.OKIR/100542452.FACILITY	Békési Pig-Farm Kft.	21.15694	46.802888	Békés	Ammonia (NH3)	22400.0	2007	1	0
109329	Hungary	7	Intensive livestock production and aquaculture	7(a)(i)	Installations for the intensive rearing of poultry with 40,000 places for poultry	HU.OKIR/100552336.FACILITY	Hungerit Zrt.	19.890963	46.679592	Kiskunfélegyháza	Ammonia (NH3)	10200.0	2007	1	0
109330	Hungary	7	Intensive livestock production and aquaculture	7(a)(i)	Installations for the intensive rearing of poultry with 40,000 places for poultry	HU.OKIR/100574040.FACILITY	ATAK-MADA Kft.	22.006927	48.184402	Pátroha	Ammonia (NH3)	22300.0	2007	1	0
109331	Hungary	7	Intensive livestock production and aquaculture	7(a)(iii)	Installations for the intensive rearing of pigs with 750 places for sows	HU.OKIR/100580926.FACILITY	Agrosztár Kft.	21.102106	46.334041	Dombegyház	Ammonia (NH3)	40500.0	2007	1	0
109332	Hungary	7	Intensive livestock production and aquaculture	7(a)(i)	Installations for the intensive rearing of poultry with 40,000 places for poultry	HU.OKIR/100581440.FACILITY	Vitaleggs Kft	20.379737	46.994368	Mezőhék	Ammonia (NH3)	24100.0	2007	1	0
109333	Hungary	7	Intensive livestock production and aquaculture	7(a)(ii)	Installations for the intensive rearing of pigs with 2,000 places for production pigs (over 30 kg)	HU.OKIR/100582241.FACILITY	Kéleshús Sertéstenyésztő és Hízlaló Kft.	19.290544	46.351237	Kéleshalom	Ammonia (NH3)	30000.0	2007	1	0
109334	Hungary	7	Intensive livestock production and aquaculture	7(a)(ii)	Installations for the intensive rearing of pigs with 2,000 places for production pigs (over 30 kg)	HU.OKIR/100587051.FACILITY	Szováti Sertés Zrt.	21.439204	47.387918	Hajdúszovát	Ammonia (NH3)	21300.0	2007	1	0
109335	Hungary	7	Intensive livestock production and aquaculture	7(a)(iii)	Installations for the intensive rearing of pigs with 750 places for sows	HU.OKIR/100587062.FACILITY	Szováti Sertés Zrt.	21.436764	47.396698	Hajdúszovát	Ammonia (NH3)	15500.0	2007	1	0
109336	Hungary	7	Intensive livestock production and aquaculture	7(a)(ii)	Installations for the intensive rearing of pigs with 2,000 places for production pigs (over 30 kg)	HU.OKIR/100592169.FACILITY	Pigmark Kft	20.142243	46.296048	Szeged	Ammonia (NH3)	19000.0	2007	1	0
109337	Hungary	7	Intensive livestock production and aquaculture	7(a)(i)	Installations for the intensive rearing of poultry with 40,000 places for poultry	HU.OKIR/100592228.FACILITY	Felgyő-Kev Kft.	19.997704	46.485548	Kistelek	Ammonia (NH3)	14800.0	2007	1	0
109338	Hungary	7	Intensive livestock production and aquaculture	7(a)(i)	Installations for the intensive rearing of poultry with 40,000 places for poultry	HU.OKIR/100598611.FACILITY	Mezei Jenő István	19.725662	46.585651	Jászszentlászló	Ammonia (NH3)	11500.0	2007	1	0
109339	Hungary	7	Intensive livestock production and aquaculture	7(a)(i)	Installations for the intensive rearing of poultry with 40,000 places for poultry	HU.OKIR/100608932.FACILITY	Turkey Experts Kft.	17.260363	47.172609	Kerta	Ammonia (NH3)	76100.0	2007	1	0
109340	Hungary	7	Intensive livestock production and aquaculture	7(a)(i)	Installations for the intensive rearing of poultry with 40,000 places for poultry	HU.OKIR/100609216.FACILITY	Varjasi Farm Kft.	20.073541	46.224174	Szeged	Ammonia (NH3)	16500.0	2007	1	0
109341	Hungary	7	Intensive livestock production and aquaculture	7(a)(ii)	Installations for the intensive rearing of pigs with 2,000 places for production pigs (over 30 kg)	HU.OKIR/100610773.FACILITY	Kovács Mihályné	18.697606	46.813059	Alap	Ammonia (NH3)	18000.0	2007	1	0
109342	Hungary	7	Intensive livestock production and aquaculture	7(a)(ii)	Installations for the intensive rearing of pigs with 2,000 places for production pigs (over 30 kg)	HU.OKIR/100611862.FACILITY	Völgység Major Állattenyésztő Kft.	18.349809	46.528432	Szakály	Ammonia (NH3)	31300.0	2007	1	0
109343	Hungary	7	Intensive livestock production and aquaculture	7(a)(ii)	Installations for the intensive rearing of pigs with 2,000 places for production pigs (over 30 kg)	HU.OKIR/100612009.FACILITY	Keve-Sertés KFT.	18.732394	47.291823	Baracska	Ammonia (NH3)	11100.0	2007	1	0
109344	Hungary	7	Intensive livestock production and aquaculture	7(a)(i)	Installations for the intensive rearing of poultry with 40,000 places for poultry	HU.OKIR/100617406.FACILITY	Varjasi Farm Kft.	20.640799	46.547805	Orosháza	Ammonia (NH3)	22400.0	2007	1	0
109345	Hungary	7	Intensive livestock production and aquaculture	7(a)(i)	Installations for the intensive rearing of poultry with 40,000 places for poultry	HU.OKIR/100617554.FACILITY	Licsi Bt	21.354664	47.573352	Nagyhegyes	Ammonia (NH3)	16800.0	2007	1	0
109346	Hungary	7	Intensive livestock production and aquaculture	7(a)(ii)	Installations for the intensive rearing of pigs with 2,000 places for production pigs (over 30 kg)	HU.OKIR/100618724.FACILITY	Peganor Kft.	21.386711	47.554711	Nagyhegyes	Ammonia (NH3)	42400.0	2007	1	0
109347	Hungary	7	Intensive livestock production and aquaculture	7(a)(i)	Installations for the intensive rearing of poultry with 40,000 places for poultry	HU.OKIR/100619891.FACILITY	Tranzit - Ker zRt.	21.458885	46.999917	Komádi	Ammonia (NH3)	26900.0	2007	1	0
109348	Hungary	7	Intensive livestock production and aquaculture	7(a)(i)	Installations for the intensive rearing of poultry with 40,000 places for poultry	HU.OKIR/100619905.FACILITY	Böszörményi Állattenyésztő Kft	21.561102	47.675009	Hajdúböszörmény	Ammonia (NH3)	11700.0	2007	1	0
109349	Hungary	7	Intensive livestock production and aquaculture	7(a)(i)	Installations for the intensive rearing of poultry with 40,000 places for poultry	HU.OKIR/100622949.FACILITY	Turkey Experts Kft.	17.283726	47.066373	Szentimrefalva	Ammonia (NH3)	55600.0	2007	1	0
109350	Hungary	7	Intensive livestock production and aquaculture	7(a)(i)	Installations for the intensive rearing of poultry with 40,000 places for poultry	HU.OKIR/100628985.FACILITY	Egg-Land Kft.	17.100841	47.777457	Jánossomorja	Ammonia (NH3)	24100.0	2007	1	0
109351	Hungary	7	Intensive livestock production and aquaculture	7(a)(ii)	Installations for the intensive rearing of pigs with 2,000 places for production pigs (over 30 kg)	HU.OKIR/100633761.FACILITY	Tarnamérai Hustermelö És Értékesitö Kft /Tarnahus Kft/	20.132877	47.641596	Zaránk	Ammonia (NH3)	12300.0	2007	1	0
109352	Hungary	7	Intensive livestock production and aquaculture	7(a)(iii)	Installations for the intensive rearing of pigs with 750 places for sows	HU.OKIR/100635190.FACILITY	Fiorács Kft.	18.20032	47.716998	Komárom	Ammonia (NH3)	12000.0	2007	1	0
109353	Hungary	7	Intensive livestock production and aquaculture	7(a)(ii)	Installations for the intensive rearing of pigs with 2,000 places for production pigs (over 30 kg)	HU.OKIR/100642497.FACILITY	"""Pigmix 2006"" Kft."	18.524721	46.737727	Simontornya	Ammonia (NH3)	13100.0	2007	1	0
109354	Hungary	7	Intensive livestock production and aquaculture	7(a)(i)	Installations for the intensive rearing of poultry with 40,000 places for poultry	HU.OKIR/100661591.FACILITY	Tranzit - Ker zRt.	21.393262	47.874031	Hajdúnánás	Ammonia (NH3)	28500.0	2007	1	0
109355	Hungary	7	Intensive livestock production and aquaculture	7(a)(i)	Installations for the intensive rearing of poultry with 40,000 places for poultry	HU.OKIR/100676159.FACILITY	Háda Zoltán	22.020124	48.196153	Rétközberencs	Ammonia (NH3)	16100.0	2007	1	0
109356	Hungary	7	Intensive livestock production and aquaculture	7(a)(i)	Installations for the intensive rearing of poultry with 40,000 places for poultry	HU.OKIR/100686479.FACILITY	Hegyháti Broiler Mezőgazdasági Termelő és Kereskedelmi Kft.	16.648482	46.956392	Hegyhátsál	Ammonia (NH3)	21000.0	2007	1	0
109357	Hungary	7	Intensive livestock production and aquaculture	7(a)(ii)	Installations for the intensive rearing of pigs with 2,000 places for production pigs (over 30 kg)	HU.OKIR/100688185.FACILITY	Nagyhegyesi Agrár Kft.	21.454673	47.650473	Hajdúböszörmény	Ammonia (NH3)	21800.0	2007	1	0
109358	Hungary	7	Intensive livestock production and aquaculture	7(a)(i)	Installations for the intensive rearing of poultry with 40,000 places for poultry	HU.OKIR/100688934.FACILITY	Nagyhegyesi Állattenyésztö, Termelö, Kereskedelmi És Szolgáltato Kft	21.333383	47.5369	Nagyhegyes	Ammonia (NH3)	28000.0	2007	1	0
109359	Hungary	7	Intensive livestock production and aquaculture	7(a)(i)	Installations for the intensive rearing of poultry with 40,000 places for poultry	HU.OKIR/100688945.FACILITY	Nagyhegyesi Állattenyésztö, Termelö, Kereskedelmi És Szolgáltato Kft	21.345041	47.526896	Nagyhegyes	Ammonia (NH3)	56000.0	2007	1	0
109360	Hungary	7	Intensive livestock production and aquaculture	7(a)(i)	Installations for the intensive rearing of poultry with 40,000 places for poultry	HU.OKIR/100690100.FACILITY	Nagisz Zrt.	21.522091	47.387894	Hajdúszovát	Ammonia (NH3)	27700.0	2007	1	0
