Unnamed: 0	Country	EPRTRSectorCode	eprtrSectorName	EPRTRAnnexIMainActivityCode	EPRTRAnnexIMainActivityLabel	FacilityInspireID	facilityName	Longitude	Latitude	City	Pollutant	Emissions	Year	Air	Water
0	Austria	4	Chemical industry	4(d)	Chemical installations for the production on an industrial scale of basic plant health products and of biocides	AT.CAED/9008390392737.FACILITY	Nufarm GmbH & CO KG	14.336056	48.290943	Linz	1,2-dichloroethane (DCE-1,2)	3300.0	2007	1	0
1	Austria	9	Other activities	9(c)	Installations for the surface treatment of substances, objects or products using organic solvents, in particular for dressing, printing, coating, degreasing, waterproofing, sizing, painting, cleaning or impregnating	AT.CAED/9008390396414.FACILITY	MAGNA STEYR Fahrzeugtechnik AG&Co KG	15.477778	47.01917	Graz,07.Bez.:Liebenau	Non-methane volatile organic compounds (NMVOC)	170000.0	2007	1	0
2	Austria	6	Paper and wood production and processing	6(b)	Industrial plants for the production of paper and board and other primary wood products (such as chipboard, fibreboard and plywood)	AT.CAED/9008390397176.FACILITY	Fritz EGGER GmbH & Co. OG	15.691833	48.259556	Unterradlberg	Carbon dioxide (CO2)	228000000.0	2007	1	0
3	Austria	6	Paper and wood production and processing	6(b)	Industrial plants for the production of paper and board and other primary wood products (such as chipboard, fibreboard and plywood)	AT.CAED/9008390397176.FACILITY	Fritz EGGER GmbH & Co. OG	15.691833	48.259556	Unterradlberg	Nitrogen oxides (NOX)	311000.0	2007	1	0
4	Austria	3	Mineral industry	3(c)	Installations for the production of cement clinker in rotary kilns, lime in rotary kilns, cement or lime in other furnaces. Note to reporters, use Level 3 activity e.g. 3(c)(i), in preference to 3(c). Level 2 activity class (i.e. 3(c)) only to be used where Level 3 is not available.	AT.CAED/9008390397220.FACILITY	voestalpine Stahl GmbH	14.159778	47.807083	Klaus an der Pyhrnbahn	Carbon dioxide (CO2)	329000000.0	2007	1	0
5	Austria	9	Other activities	9(c)	Installations for the surface treatment of substances, objects or products using organic solvents, in particular for dressing, printing, coating, degreasing, waterproofing, sizing, painting, cleaning or impregnating	AT.CAED/9008390398050.FACILITY	AR Packaging Graz GmbH	15.4	47.033333	Graz,16.Bez.:Straßgang	Non-methane volatile organic compounds (NMVOC)	185000.0	2007	1	0
6	Austria	8	Animal and vegetable products from the food and beverage sector	8(b)	Treatment and processing intended for the production of food and beverage products. Note to reporters, use Level 3 activity e.g. 8(b)(i), in preference to 8(b). Level 2 activity class (i.e. 8(b)) only to be used where Level 3 is not available.	AT.CAED/9008390402368.FACILITY	Jungbunzlauer Austria AG	16.27811	48.721222	Wulzeshofen	Carbon dioxide (CO2)	159000000.0	2007	1	0
7	Austria	8	Animal and vegetable products from the food and beverage sector	8(b)	Treatment and processing intended for the production of food and beverage products. Note to reporters, use Level 3 activity e.g. 8(b)(i), in preference to 8(b). Level 2 activity class (i.e. 8(b)) only to be used where Level 3 is not available.	AT.CAED/9008390402368.FACILITY	Jungbunzlauer Austria AG	16.27811	48.721222	Wulzeshofen	Sulphur oxides (SOX)	179000.0	2007	1	0
8	Austria	4	Chemical industry	4(b)	Chemical installations for the production on an industrial scale of basic inorganic chemicals. Note to reporters, use Level 3 activity e.g. 4(b)(i), in preference to 4(b). Level 2 activity class (i.e. 4(b)) only to be used where Level 3 is not available.	AT.CAED/9008390403822.FACILITY	Wiehart Gesellschaft m.b.H.	16.279722	48.72461	Wulzeshofen	Zinc and compounds (as Zn)	3220.0	2007	1	0
9	Austria	6	Paper and wood production and processing	6(b)	Industrial plants for the production of paper and board and other primary wood products (such as chipboard, fibreboard and plywood)	AT.CAED/9008390404355.FACILITY	Norske Skog Bruck GmbH	15.277111	47.416862	Berndorf	Carbon dioxide (CO2)	294000000.0	2007	1	0
10	Austria	6	Paper and wood production and processing	6(b)	Industrial plants for the production of paper and board and other primary wood products (such as chipboard, fibreboard and plywood)	AT.CAED/9008390404355.FACILITY	Norske Skog Bruck GmbH	15.277111	47.416862	Berndorf	Nitrogen oxides (NOX)	382000.0	2007	1	0
11	Austria	4	Chemical industry	4(a)	Chemical installations for the production on an industrial scale of basic organic chemicals. Note to reporters, use Level 3 activity e.g. 4(a)(iii), in preference to 4(a). Level 2 activity class (i.e. 4(a)) only to be used where Level 3 is not available.	AT.CAED/9008390437407.FACILITY	ATMOSA Petrochemie	16.483334	48.13333	Mannswörth	Carbon monoxide (CO)	4600000.0	2007	1	0
12	Austria	5	Waste and wastewater management	5(d)	Landfills (excluding landfills of inert waste and landfills, which were definitely closed before 16.7.2001 or for which the after-care phase required by the competent authorities according to Article 13 of Council Directive 1999/31/EC of 26 April 1999 on the landfill of waste has expired)	AT.CAED/9008390461457.FACILITY	Burgenländischer Müllverband	16.488333	47.55	Unterfrauenhaid	Methane (CH4)	494000.0	2007	1	0
13	Austria	6	Paper and wood production and processing	6(b)	Industrial plants for the production of paper and board and other primary wood products (such as chipboard, fibreboard and plywood)	AT.CAED/9008390470305.FACILITY	M. Kaindl OG	12.999722	47.822777	Siezenheim	Carbon dioxide (CO2)	218000000.0	2007	1	0
14	Austria	6	Paper and wood production and processing	6(b)	Industrial plants for the production of paper and board and other primary wood products (such as chipboard, fibreboard and plywood)	AT.CAED/9008390470305.FACILITY	M. Kaindl OG	12.999722	47.822777	Siezenheim	Nitrogen oxides (NOX)	428000.0	2007	1	0
15	Austria	2	Production and processing of metals	2(f)	Installations for surface treatment of metals and plastic materials using an electrolytic or chemical process	AT.CAED/9008390483954.FACILITY	voestalpine Wire Rod Austria GmbH	15.042972	47.391834	Sankt Peter-Freienstein	Nitrogen oxides (NOX)	106000.0	2007	1	0
16	Austria	8	Animal and vegetable products from the food and beverage sector	8(b)	Treatment and processing intended for the production of food and beverage products. Note to reporters, use Level 3 activity e.g. 8(b)(i), in preference to 8(b). Level 2 activity class (i.e. 8(b)) only to be used where Level 3 is not available.	AT.CAED/9008390484500.FACILITY	Bunge Austria GmbH	16.754778	48.022446	Bruck an der Leitha	Non-methane volatile organic compounds (NMVOC)	206000.0	2007	1	0
17	Austria	9	Other activities	9(c)	Installations for the surface treatment of substances, objects or products using organic solvents, in particular for dressing, printing, coating, degreasing, waterproofing, sizing, painting, cleaning or impregnating	AT.CAED/9008390485620.FACILITY	GIKO Verpackungen GmbH	9.648694	47.297054	Weiler	Non-methane volatile organic compounds (NMVOC)	171000.0	2007	1	0
18	Austria	1	Energy sector	1(c)	Thermal power stations and other combustion installations	AT.CAED/9008390486467.FACILITY	Trans Austria Gasleitung GmbH	16.017029	47.034	Lechen	Carbon dioxide (CO2)	141000000.0	2007	1	0
19	Austria	1	Energy sector	1(c)	Thermal power stations and other combustion installations	AT.CAED/9008390486467.FACILITY	Trans Austria Gasleitung GmbH	16.017029	47.034	Lechen	Methane (CH4)	813000.0	2007	1	0
20	Austria	1	Energy sector	1(c)	Thermal power stations and other combustion installations	AT.CAED/9008390486467.FACILITY	Trans Austria Gasleitung GmbH	16.017029	47.034	Lechen	Nitrogen oxides (NOX)	171000.0	2007	1	0
21	Austria	1	Energy sector	1(c)	Thermal power stations and other combustion installations	AT.CAED/9008390487495.FACILITY	Trans Austria Gasleitung GmbH	14.756639	46.674416	Unternberg	Carbon dioxide (CO2)	106000000.0	2007	1	0
22	Austria	1	Energy sector	1(c)	Thermal power stations and other combustion installations	AT.CAED/9008390487495.FACILITY	Trans Austria Gasleitung GmbH	14.756639	46.674416	Unternberg	Methane (CH4)	655000.0	2007	1	0
23	Austria	1	Energy sector	1(c)	Thermal power stations and other combustion installations	AT.CAED/9008390487495.FACILITY	Trans Austria Gasleitung GmbH	14.756639	46.674416	Unternberg	Nitrogen oxides (NOX)	268000.0	2007	1	0
24	Austria	5	Waste and wastewater management	5(b)	Installations for the incineration of non-hazardous waste in the scope of Directive 2000/76/EC of the European Parliament and of the Council of 4 December 2000 on the incineration of waste	AT.CAED/9008390509852.FACILITY	Baumit GmbH	16.085917	47.87225	Wopfing	Carbon dioxide (CO2)	423000000.0	2007	1	0
25	Austria	5	Waste and wastewater management	5(b)	Installations for the incineration of non-hazardous waste in the scope of Directive 2000/76/EC of the European Parliament and of the Council of 4 December 2000 on the incineration of waste	AT.CAED/9008390509852.FACILITY	Baumit GmbH	16.085917	47.87225	Wopfing	Carbon monoxide (CO)	824000.0	2007	1	0
26	Austria	5	Waste and wastewater management	5(b)	Installations for the incineration of non-hazardous waste in the scope of Directive 2000/76/EC of the European Parliament and of the Council of 4 December 2000 on the incineration of waste	AT.CAED/9008390509852.FACILITY	Baumit GmbH	16.085917	47.87225	Wopfing	Mercury and compounds (as Hg)	28.8	2007	1	0
27	Austria	5	Waste and wastewater management	5(b)	Installations for the incineration of non-hazardous waste in the scope of Directive 2000/76/EC of the European Parliament and of the Council of 4 December 2000 on the incineration of waste	AT.CAED/9008390509852.FACILITY	Baumit GmbH	16.085917	47.87225	Wopfing	Nitrogen oxides (NOX)	315000.0	2007	1	0
28	Austria	3	Mineral industry	3(e)	Installations for the manufacture of glass, including glass fibre	AT.CAED/9008390510254.FACILITY	Vetropack Austria GmbH	14.144222	48.0565	Kremsmünster	Nitrogen oxides (NOX)	276000.0	2007	1	0
29	Austria	2	Production and processing of metals	2(f)	Installations for surface treatment of metals and plastic materials using an electrolytic or chemical process	AT.CAED/9008390514429.FACILITY	Collini GmbH Metallveredelung	9.681667	47.369446	Hohenems	Hydrogen cyanide (HCN)	1580.0	2007	1	0
30	Austria	9	Other activities	9(c)	Installations for the surface treatment of substances, objects or products using organic solvents, in particular for dressing, printing, coating, degreasing, waterproofing, sizing, painting, cleaning or impregnating	AT.CAED/9008390515914.FACILITY	Scheyer Verpackungstechnik GmbH	9.641111	47.31278	Klaus	Non-methane volatile organic compounds (NMVOC)	179000.0	2007	1	0
31	Austria	9	Other activities	9(c)	Installations for the surface treatment of substances, objects or products using organic solvents, in particular for dressing, printing, coating, degreasing, waterproofing, sizing, painting, cleaning or impregnating	AT.CAED/9008390537077.FACILITY	TANNPAPIER GmbH	14.233611	48.216946	Traun	Non-methane volatile organic compounds (NMVOC)	246000.0	2007	1	0
32	Austria	6	Paper and wood production and processing	6(a)	Industrial plants for the production of pulp from timber or similar fibrous materials	AT.CAED/9008390614785.FACILITY	Zellstoff Pöls Aktiengesellschaft	14.590389	47.2175	Pöls	Nitrogen oxides (NOX)	697000.0	2007	1	0
33	Austria	1	Energy sector	1(a)	Mineral oil and gas refineries	AT.CAED/9008390661741.FACILITY	OMV Downstream GmbH	16.493889	48.144722	Schwechat	Carbon dioxide (CO2)	2870000000.0	2007	1	0
34	Austria	1	Energy sector	1(a)	Mineral oil and gas refineries	AT.CAED/9008390661741.FACILITY	OMV Downstream GmbH	16.493889	48.144722	Schwechat	Nitrogen oxides (NOX)	3050000.0	2007	1	0
35	Austria	1	Energy sector	1(a)	Mineral oil and gas refineries	AT.CAED/9008390661741.FACILITY	OMV Downstream GmbH	16.493889	48.144722	Schwechat	Particulate matter (PM10)	92500.0	2007	1	0
36	Austria	1	Energy sector	1(a)	Mineral oil and gas refineries	AT.CAED/9008390661741.FACILITY	OMV Downstream GmbH	16.493889	48.144722	Schwechat	Sulphur oxides (SOX)	3230000.0	2007	1	0
37	Austria	4	Chemical industry	4(a)	Chemical installations for the production on an industrial scale of basic organic chemicals. Note to reporters, use Level 3 activity e.g. 4(a)(iii), in preference to 4(a). Level 2 activity class (i.e. 4(a)) only to be used where Level 3 is not available.	AT.CAED/9008390705353.FACILITY	Lenzing AG	13.616667	47.966667	Lenzing	Carbon dioxide (CO2)	949000000.0	2007	1	0
38	Austria	4	Chemical industry	4(a)	Chemical installations for the production on an industrial scale of basic organic chemicals. Note to reporters, use Level 3 activity e.g. 4(a)(iii), in preference to 4(a). Level 2 activity class (i.e. 4(a)) only to be used where Level 3 is not available.	AT.CAED/9008390705353.FACILITY	Lenzing AG	13.616667	47.966667	Lenzing	Nitrogen oxides (NOX)	870000.0	2007	1	0
39	Austria	4	Chemical industry	4(a)	Chemical installations for the production on an industrial scale of basic organic chemicals. Note to reporters, use Level 3 activity e.g. 4(a)(iii), in preference to 4(a). Level 2 activity class (i.e. 4(a)) only to be used where Level 3 is not available.	AT.CAED/9008390705353.FACILITY	Lenzing AG	13.616667	47.966667	Lenzing	Particulate matter (PM10)	52400.0	2007	1	0
40	Austria	4	Chemical industry	4(a)	Chemical installations for the production on an industrial scale of basic organic chemicals. Note to reporters, use Level 3 activity e.g. 4(a)(iii), in preference to 4(a). Level 2 activity class (i.e. 4(a)) only to be used where Level 3 is not available.	AT.CAED/9008390705353.FACILITY	Lenzing AG	13.616667	47.966667	Lenzing	Sulphur oxides (SOX)	637000.0	2007	1	0
41	Austria	6	Paper and wood production and processing	6(b)	Industrial plants for the production of paper and board and other primary wood products (such as chipboard, fibreboard and plywood)	AT.CAED/9008390707227.FACILITY	Smurfit Kappa Nettingsdorf AG & Co KG	14.256111	48.183056	Kremsdorf	Carbon monoxide (CO)	2570000.0	2007	1	0
42	Austria	6	Paper and wood production and processing	6(b)	Industrial plants for the production of paper and board and other primary wood products (such as chipboard, fibreboard and plywood)	AT.CAED/9008390707227.FACILITY	Smurfit Kappa Nettingsdorf AG & Co KG	14.256111	48.183056	Kremsdorf	Nitrogen oxides (NOX)	237000.0	2007	1	0
43	Austria	5	Waste and wastewater management	5(d)	Landfills (excluding landfills of inert waste and landfills, which were definitely closed before 16.7.2001 or for which the after-care phase required by the competent authorities according to Article 13 of Council Directive 1999/31/EC of 26 April 1999 on the landfill of waste has expired)	AT.CAED/9008390758045.FACILITY	Burgenländischer Müllverband	16.455833	47.807777	Großhöflein	Methane (CH4)	560000.0	2007	1	0
44	Austria	6	Paper and wood production and processing	6(b)	Industrial plants for the production of paper and board and other primary wood products (such as chipboard, fibreboard and plywood)	AT.CAED/9008390853801.FACILITY	Mayr-Melnhof Karton Gesellschaft m.b.H.	15.328056	47.278057	Frohnleiten	Carbon dioxide (CO2)	142000000.0	2007	1	0
45	Austria	6	Paper and wood production and processing	6(b)	Industrial plants for the production of paper and board and other primary wood products (such as chipboard, fibreboard and plywood)	AT.CAED/9008390853801.FACILITY	Mayr-Melnhof Karton Gesellschaft m.b.H.	15.328056	47.278057	Frohnleiten	Nitrogen oxides (NOX)	133000.0	2007	1	0
46	Austria	5	Waste and wastewater management	5(c)	Installations for the disposal of non-hazardous waste	AT.CAED/9008390921050.FACILITY	Salzburger Abfallbeseitigung G.m.b.H	12.9975	47.864307	Bergheim	Methane (CH4)	3020000.0	2007	1	0
47	Austria	1	Energy sector	1(c)	Thermal power stations and other combustion installations	AT.CAED/9008390928783.FACILITY	Energie AG Oberösterreich Erzeugung GmbH	13.589111	48.010807	Timelkam	Carbon dioxide (CO2)	484000000.0	2007	1	0
48	Austria	1	Energy sector	1(c)	Thermal power stations and other combustion installations	AT.CAED/9008390928783.FACILITY	Energie AG Oberösterreich Erzeugung GmbH	13.589111	48.010807	Timelkam	Nitrogen oxides (NOX)	611000.0	2007	1	0
49	Austria	1	Energy sector	1(c)	Thermal power stations and other combustion installations	AT.CAED/9008390928783.FACILITY	Energie AG Oberösterreich Erzeugung GmbH	13.589111	48.010807	Timelkam	Nitrous oxide (N2O)	24100.0	2007	1	0
50	Austria	9	Other activities	9(c)	Installations for the surface treatment of substances, objects or products using organic solvents, in particular for dressing, printing, coating, degreasing, waterproofing, sizing, painting, cleaning or impregnating	AT.CAED/9008390931400.FACILITY	Constantia Teich GmbH	15.516667	48.1	Mühlhofen	Non-methane volatile organic compounds (NMVOC)	1120000.0	2007	1	0
51	Austria	6	Paper and wood production and processing	6(b)	Industrial plants for the production of paper and board and other primary wood products (such as chipboard, fibreboard and plywood)	AT.CAED/9008390933619.FACILITY	FunderMax GmbH	16.29139	47.79361	Neudörfl	Non-methane volatile organic compounds (NMVOC)	226000.0	2007	1	0
52	Austria	5	Waste and wastewater management	5(b)	Installations for the incineration of non-hazardous waste in the scope of Directive 2000/76/EC of the European Parliament and of the Council of 4 December 2000 on the incineration of waste	AT.CAED/9008390933787.FACILITY	WIEN ENERGIE GmbH	16.359722	48.234165	Wien,Alsergrund	Carbon dioxide (CO2)	130000000.0	2007	1	0
53	Austria	6	Paper and wood production and processing	6(b)	Industrial plants for the production of paper and board and other primary wood products (such as chipboard, fibreboard and plywood)	AT.CAED/9008390952283.FACILITY	UPM Kymmene Austria GmbH	13.816667	47.983334	Stötten	Carbon dioxide (CO2)	248000000.0	2007	1	0
54	Austria	6	Paper and wood production and processing	6(b)	Industrial plants for the production of paper and board and other primary wood products (such as chipboard, fibreboard and plywood)	AT.CAED/9008390952283.FACILITY	UPM Kymmene Austria GmbH	13.816667	47.983334	Stötten	Nitrogen oxides (NOX)	385000.0	2007	1	0
55	Austria	1	Energy sector	1(c)	Thermal power stations and other combustion installations	AT.CAED/9008390956830.FACILITY	WIEN ENERGIE GmbH	16.45	48.183334	Wien,Donaustadt	Carbon dioxide (CO2)	810000000.0	2007	1	0
56	Austria	1	Energy sector	1(c)	Thermal power stations and other combustion installations	AT.CAED/9008390956830.FACILITY	WIEN ENERGIE GmbH	16.45	48.183334	Wien,Donaustadt	Nitrogen oxides (NOX)	358000.0	2007	1	0
57	Austria	4	Chemical industry	4(a)	Chemical installations for the production on an industrial scale of basic organic chemicals. Note to reporters, use Level 3 activity e.g. 4(a)(iii), in preference to 4(a). Level 2 activity class (i.e. 4(a)) only to be used where Level 3 is not available.	AT.CAED/9008390961421.FACILITY	Borealis Polyolefine GmbH	16.520111	48.136	Mannswörth	Hydrochlorofluorocarbons (HCFCs)	685.0	2007	1	0
58	Austria	4	Chemical industry	4(a)	Chemical installations for the production on an industrial scale of basic organic chemicals. Note to reporters, use Level 3 activity e.g. 4(a)(iii), in preference to 4(a). Level 2 activity class (i.e. 4(a)) only to be used where Level 3 is not available.	AT.CAED/9008390961421.FACILITY	Borealis Polyolefine GmbH	16.520111	48.136	Mannswörth	Non-methane volatile organic compounds (NMVOC)	380000.0	2007	1	0
59	Austria	2	Production and processing of metals	2(f)	Installations for surface treatment of metals and plastic materials using an electrolytic or chemical process	AT.CAED/9008390966594.FACILITY	voestalpine BÖHLER Edelstahl GmbH & Co KG	15.283333	47.433334	Winkl	Chromium and compounds (as Cr)	130.0	2007	1	0
60	Austria	2	Production and processing of metals	2(f)	Installations for surface treatment of metals and plastic materials using an electrolytic or chemical process	AT.CAED/9008390966594.FACILITY	voestalpine BÖHLER Edelstahl GmbH & Co KG	15.283333	47.433334	Winkl	Zinc and compounds (as Zn)	530.0	2007	1	0
61	Austria	6	Paper and wood production and processing	6(b)	Industrial plants for the production of paper and board and other primary wood products (such as chipboard, fibreboard and plywood)	AT.CAED/9008390968734.FACILITY	AustroCel Hallein GmbH	13.108722	47.67575	Hallein	Carbon dioxide (CO2)	510000000.0	2007	1	0
62	Austria	6	Paper and wood production and processing	6(b)	Industrial plants for the production of paper and board and other primary wood products (such as chipboard, fibreboard and plywood)	AT.CAED/9008390968734.FACILITY	AustroCel Hallein GmbH	13.108722	47.67575	Hallein	Nitrogen oxides (NOX)	309000.0	2007	1	0
63	Austria	6	Paper and wood production and processing	6(b)	Industrial plants for the production of paper and board and other primary wood products (such as chipboard, fibreboard and plywood)	AT.CAED/9008390968734.FACILITY	AustroCel Hallein GmbH	13.108722	47.67575	Hallein	Sulphur oxides (SOX)	212000.0	2007	1	0
64	Austria	3	Mineral industry	3(e)	Installations for the manufacture of glass, including glass fibre	AT.CAED/9008390969007.FACILITY	D.Swarovski KG	11.598611	47.29778	Wattens	Nitrogen oxides (NOX)	182000.0	2007	1	0
65	Austria	3	Mineral industry	3(e)	Installations for the manufacture of glass, including glass fibre	AT.CAED/9008390969007.FACILITY	D.Swarovski KG	11.598611	47.29778	Wattens	Non-methane volatile organic compounds (NMVOC)	113000.0	2007	1	0
66	Austria	5	Waste and wastewater management	5(b)	Installations for the incineration of non-hazardous waste in the scope of Directive 2000/76/EC of the European Parliament and of the Council of 4 December 2000 on the incineration of waste	AT.CAED/9008390971345.FACILITY	VERBUND Thermal Power GmbH & Co KG	15.488333	46.911667	Wildon	Carbon dioxide (CO2)	1190000000.0	2007	1	0
67	Austria	5	Waste and wastewater management	5(b)	Installations for the incineration of non-hazardous waste in the scope of Directive 2000/76/EC of the European Parliament and of the Council of 4 December 2000 on the incineration of waste	AT.CAED/9008390971345.FACILITY	VERBUND Thermal Power GmbH & Co KG	15.488333	46.911667	Wildon	Nitrogen oxides (NOX)	831000.0	2007	1	0
68	Austria	5	Waste and wastewater management	5(b)	Installations for the incineration of non-hazardous waste in the scope of Directive 2000/76/EC of the European Parliament and of the Council of 4 December 2000 on the incineration of waste	AT.CAED/9008390971345.FACILITY	VERBUND Thermal Power GmbH & Co KG	15.488333	46.911667	Wildon	Sulphur oxides (SOX)	263000.0	2007	1	0
69	Austria	1	Energy sector	1(c)	Thermal power stations and other combustion installations	AT.CAED/9008390972489.FACILITY	WIEN ENERGIE GmbH	16.433332	48.166668	Wien,Simmering	Carbon dioxide (CO2)	895000000.0	2007	1	0
70	Austria	1	Energy sector	1(c)	Thermal power stations and other combustion installations	AT.CAED/9008390972489.FACILITY	WIEN ENERGIE GmbH	16.433332	48.166668	Wien,Simmering	Nitrogen oxides (NOX)	472000.0	2007	1	0
71	Austria	2	Production and processing of metals	2(e)	Installations for the production and/or smelting of non-ferrous metals. Note to reporters, use Level 3 activity e.g. 2(e)(i), in preference to 2(e). Level 2 activity class (i.e. 2(e)) only to be used where Level 3 is not available.	AT.CAED/9008390973523.FACILITY	Montanwerke Brixlegg AG	11.875	47.43639	Brixlegg	Copper and compounds (as Cu)	380.0	2007	1	0
72	Austria	2	Production and processing of metals	2(e)	Installations for the production and/or smelting of non-ferrous metals. Note to reporters, use Level 3 activity e.g. 2(e)(i), in preference to 2(e). Level 2 activity class (i.e. 2(e)) only to be used where Level 3 is not available.	AT.CAED/9008390973523.FACILITY	Montanwerke Brixlegg AG	11.875	47.43639	Brixlegg	Lead and compounds (as Pb)	280.0	2007	1	0
73	Austria	2	Production and processing of metals	2(e)	Installations for the production and/or smelting of non-ferrous metals. Note to reporters, use Level 3 activity e.g. 2(e)(i), in preference to 2(e). Level 2 activity class (i.e. 2(e)) only to be used where Level 3 is not available.	AT.CAED/9008390973523.FACILITY	Montanwerke Brixlegg AG	11.875	47.43639	Brixlegg	Zinc and compounds (as Zn)	470.0	2007	1	0
74	Austria	5	Waste and wastewater management	5(b)	Installations for the incineration of non-hazardous waste in the scope of Directive 2000/76/EC of the European Parliament and of the Council of 4 December 2000 on the incineration of waste	AT.CAED/9008390973899.FACILITY	Energie AG Oberösterreich Umwelt Service GmbH	14.076083	48.169834	Wels	Carbon dioxide (CO2)	322000000.0	2007	1	0
75	Austria	9	Other activities	9(c)	Installations for the surface treatment of substances, objects or products using organic solvents, in particular for dressing, printing, coating, degreasing, waterproofing, sizing, painting, cleaning or impregnating	AT.CAED/9008390974896.FACILITY	MAN Truck & Bus Österreich GesmbH	14.425556	48.0375	Steyr	Non-methane volatile organic compounds (NMVOC)	100000.0	2007	1	0
76	Austria	2	Production and processing of metals	2(b)	Installations for the production of pig iron or steel (primary or secondary melting) including continuous casting	AT.CAED/9008390975701.FACILITY	voestalpine Stahl Donawitz GesmbH	15.067806	47.03378	Donawitz	Carbon dioxide (CO2)	2790000000.0	2007	1	0
77	Austria	2	Production and processing of metals	2(b)	Installations for the production of pig iron or steel (primary or secondary melting) including continuous casting	AT.CAED/9008390975701.FACILITY	voestalpine Stahl Donawitz GesmbH	15.067806	47.03378	Donawitz	Carbon monoxide (CO)	55600000.0	2007	1	0
78	Austria	2	Production and processing of metals	2(b)	Installations for the production of pig iron or steel (primary or secondary melting) including continuous casting	AT.CAED/9008390975701.FACILITY	voestalpine Stahl Donawitz GesmbH	15.067806	47.03378	Donawitz	Chlorine and inorganic compounds (as HCl)	14000.0	2007	1	0
79	Austria	2	Production and processing of metals	2(b)	Installations for the production of pig iron or steel (primary or secondary melting) including continuous casting	AT.CAED/9008390975701.FACILITY	voestalpine Stahl Donawitz GesmbH	15.067806	47.03378	Donawitz	Lead and compounds (as Pb)	269.0	2007	1	0
80	Austria	2	Production and processing of metals	2(b)	Installations for the production of pig iron or steel (primary or secondary melting) including continuous casting	AT.CAED/9008390975701.FACILITY	voestalpine Stahl Donawitz GesmbH	15.067806	47.03378	Donawitz	Nitrogen oxides (NOX)	948000.0	2007	1	0
81	Austria	2	Production and processing of metals	2(b)	Installations for the production of pig iron or steel (primary or secondary melting) including continuous casting	AT.CAED/9008390975701.FACILITY	voestalpine Stahl Donawitz GesmbH	15.067806	47.03378	Donawitz	Particulate matter (PM10)	500000.0	2007	1	0
82	Austria	2	Production and processing of metals	2(b)	Installations for the production of pig iron or steel (primary or secondary melting) including continuous casting	AT.CAED/9008390975701.FACILITY	voestalpine Stahl Donawitz GesmbH	15.067806	47.03378	Donawitz	Sulphur oxides (SOX)	857000.0	2007	1	0
83	Austria	2	Production and processing of metals	2(d)	Ferrous metal foundries with a production capacity of 20 tonnes per day	AT.CAED/9008391044796.FACILITY	Georg Fischer Fittings GmbH	15.605667	48.034668	Traisen	Carbon monoxide (CO)	2710000.0	2007	1	0
84	Austria	5	Waste and wastewater management	5(d)	Landfills (excluding landfills of inert waste and landfills, which were definitely closed before 16.7.2001 or for which the after-care phase required by the competent authorities according to Article 13 of Council Directive 1999/31/EC of 26 April 1999 on the landfill of waste has expired)	AT.CAED/9008391174073.FACILITY	Stadtwerke Judenburg AG	14.051194	47.01703	Gasselsdorf	Methane (CH4)	1080000.0	2007	1	0
85	Austria	5	Waste and wastewater management	5(b)	Installations for the incineration of non-hazardous waste in the scope of Directive 2000/76/EC of the European Parliament and of the Council of 4 December 2000 on the incineration of waste	AT.CAED/9008391181606.FACILITY	WIEN ENERGIE GmbH	16.457779	48.176277	Wien,Simmering	Carbon dioxide (CO2)	340000000.0	2007	1	0
86	Austria	5	Waste and wastewater management	5(d)	Landfills (excluding landfills of inert waste and landfills, which were definitely closed before 16.7.2001 or for which the after-care phase required by the competent authorities according to Article 13 of Council Directive 1999/31/EC of 26 April 1999 on the landfill of waste has expired)	AT.CAED/9008391214977.FACILITY	Linz Service GmbH für Infrastruktur und Kommunale Dienste	14.4	48.216667	Asten	Methane (CH4)	1090000.0	2007	1	0
87	Austria	2	Production and processing of metals	2(e)	Installations for the production and/or smelting of non-ferrous metals. Note to reporters, use Level 3 activity e.g. 2(e)(i), in preference to 2(e). Level 2 activity class (i.e. 2(e)) only to be used where Level 3 is not available.	AT.CAED/9008391215400.FACILITY	BMG Metall und Recycling	13.694722	46.55528	Arnoldstein	Lead and compounds (as Pb)	380.0	2007	1	0
88	Austria	2	Production and processing of metals	2(e)	Installations for the production and/or smelting of non-ferrous metals. Note to reporters, use Level 3 activity e.g. 2(e)(i), in preference to 2(e). Level 2 activity class (i.e. 2(e)) only to be used where Level 3 is not available.	AT.CAED/9008391215400.FACILITY	BMG Metall und Recycling	13.694722	46.55528	Arnoldstein	Sulphur oxides (SOX)	198000.0	2007	1	0
89	Austria	5	Waste and wastewater management	5(d)	Landfills (excluding landfills of inert waste and landfills, which were definitely closed before 16.7.2001 or for which the after-care phase required by the competent authorities according to Article 13 of Council Directive 1999/31/EC of 26 April 1999 on the landfill of waste has expired)	AT.CAED/9008391215523.FACILITY	Magistrat der LH St. Pölten	15.589	48.196445	St. Pölten	Methane (CH4)	1650000.0	2007	1	0
90	Austria	1	Energy sector	1(c)	Thermal power stations and other combustion installations	AT.CAED/9008391215585.FACILITY	WIEN ENERGIE Bundesforste Biomasse Kraftwerk GmbH & Co KG	16.433332	48.183334	Wien,Simmering	Carbon dioxide (CO2)	166000000.0	2007	1	0
91	Austria	1	Energy sector	1(c)	Thermal power stations and other combustion installations	AT.CAED/9008391215622.FACILITY	Cogeneration Kraftwerke Management OÖ GmbH	13.814333	47.98061	Laakirchen	Carbon dioxide (CO2)	235000000.0	2007	1	0
92	Austria	1	Energy sector	1(c)	Thermal power stations and other combustion installations	AT.CAED/9008391215622.FACILITY	Cogeneration Kraftwerke Management OÖ GmbH	13.814333	47.98061	Laakirchen	Nitrogen oxides (NOX)	145000.0	2007	1	0
93	Austria	3	Mineral industry	3(c)	Installations for the production of cement clinker in rotary kilns, lime in rotary kilns, cement or lime in other furnaces. Note to reporters, use Level 3 activity e.g. 3(c)(i), in preference to 3(c). Level 2 activity class (i.e. 3(c)) only to be used where Level 3 is not available.	AT.CAED/9008391215639.FACILITY	Kirchdorfer Zementwerk Hofmann GmbH	14.0	47.9	Kirchdorf an der Krems	Carbon dioxide (CO2)	292000000.0	2007	1	0
94	Austria	3	Mineral industry	3(c)	Installations for the production of cement clinker in rotary kilns, lime in rotary kilns, cement or lime in other furnaces. Note to reporters, use Level 3 activity e.g. 3(c)(i), in preference to 3(c). Level 2 activity class (i.e. 3(c)) only to be used where Level 3 is not available.	AT.CAED/9008391215639.FACILITY	Kirchdorfer Zementwerk Hofmann GmbH	14.0	47.9	Kirchdorf an der Krems	Carbon monoxide (CO)	3420000.0	2007	1	0
95	Austria	3	Mineral industry	3(c)	Installations for the production of cement clinker in rotary kilns, lime in rotary kilns, cement or lime in other furnaces. Note to reporters, use Level 3 activity e.g. 3(c)(i), in preference to 3(c). Level 2 activity class (i.e. 3(c)) only to be used where Level 3 is not available.	AT.CAED/9008391215639.FACILITY	Kirchdorfer Zementwerk Hofmann GmbH	14.0	47.9	Kirchdorf an der Krems	Mercury and compounds (as Hg)	15.0	2007	1	0
96	Austria	3	Mineral industry	3(c)	Installations for the production of cement clinker in rotary kilns, lime in rotary kilns, cement or lime in other furnaces. Note to reporters, use Level 3 activity e.g. 3(c)(i), in preference to 3(c). Level 2 activity class (i.e. 3(c)) only to be used where Level 3 is not available.	AT.CAED/9008391215639.FACILITY	Kirchdorfer Zementwerk Hofmann GmbH	14.0	47.9	Kirchdorf an der Krems	Nitrogen oxides (NOX)	377000.0	2007	1	0
97	Austria	3	Mineral industry	3(c)	Installations for the production of cement clinker in rotary kilns, lime in rotary kilns, cement or lime in other furnaces. Note to reporters, use Level 3 activity e.g. 3(c)(i), in preference to 3(c). Level 2 activity class (i.e. 3(c)) only to be used where Level 3 is not available.	AT.CAED/9008391215684.FACILITY	w&p Zement GmbH	15.345833	47.212776	Peggau	Carbon dioxide (CO2)	289000000.0	2007	1	0
98	Austria	3	Mineral industry	3(c)	Installations for the production of cement clinker in rotary kilns, lime in rotary kilns, cement or lime in other furnaces. Note to reporters, use Level 3 activity e.g. 3(c)(i), in preference to 3(c). Level 2 activity class (i.e. 3(c)) only to be used where Level 3 is not available.	AT.CAED/9008391215684.FACILITY	w&p Zement GmbH	15.345833	47.212776	Peggau	Carbon monoxide (CO)	540000.0	2007	1	0
99	Austria	3	Mineral industry	3(c)	Installations for the production of cement clinker in rotary kilns, lime in rotary kilns, cement or lime in other furnaces. Note to reporters, use Level 3 activity e.g. 3(c)(i), in preference to 3(c). Level 2 activity class (i.e. 3(c)) only to be used where Level 3 is not available.	AT.CAED/9008391215684.FACILITY	w&p Zement GmbH	15.345833	47.212776	Peggau	Mercury and compounds (as Hg)	18.7	2007	1	0
100	Austria	3	Mineral industry	3(c)	Installations for the production of cement clinker in rotary kilns, lime in rotary kilns, cement or lime in other furnaces. Note to reporters, use Level 3 activity e.g. 3(c)(i), in preference to 3(c). Level 2 activity class (i.e. 3(c)) only to be used where Level 3 is not available.	AT.CAED/9008391215684.FACILITY	w&p Zement GmbH	15.345833	47.212776	Peggau	Nitrogen oxides (NOX)	290000.0	2007	1	0
101	Austria	6	Paper and wood production and processing	6(b)	Industrial plants for the production of paper and board and other primary wood products (such as chipboard, fibreboard and plywood)	AT.CAED/9008391215714.FACILITY	W. Hamburger GmbH	16.133333	47.683334	Pitten	Carbon dioxide (CO2)	173000000.0	2007	1	0
102	Austria	6	Paper and wood production and processing	6(b)	Industrial plants for the production of paper and board and other primary wood products (such as chipboard, fibreboard and plywood)	AT.CAED/9008391215714.FACILITY	W. Hamburger GmbH	16.133333	47.683334	Pitten	Nitrogen oxides (NOX)	152000.0	2007	1	0
103	Austria	3	Mineral industry	3(c)	Installations for the production of cement clinker in rotary kilns, lime in rotary kilns, cement or lime in other furnaces. Note to reporters, use Level 3 activity e.g. 3(c)(i), in preference to 3(c). Level 2 activity class (i.e. 3(c)) only to be used where Level 3 is not available.	AT.CAED/9008391215721.FACILITY	Zementwerk Hatschek GmbH	13.778	47.92278	Gmunden	Ammonia (NH3)	11200.0	2007	1	0
104	Austria	3	Mineral industry	3(c)	Installations for the production of cement clinker in rotary kilns, lime in rotary kilns, cement or lime in other furnaces. Note to reporters, use Level 3 activity e.g. 3(c)(i), in preference to 3(c). Level 2 activity class (i.e. 3(c)) only to be used where Level 3 is not available.	AT.CAED/9008391215721.FACILITY	Zementwerk Hatschek GmbH	13.778	47.92278	Gmunden	Benzene	1670.0	2007	1	0
105	Austria	3	Mineral industry	3(c)	Installations for the production of cement clinker in rotary kilns, lime in rotary kilns, cement or lime in other furnaces. Note to reporters, use Level 3 activity e.g. 3(c)(i), in preference to 3(c). Level 2 activity class (i.e. 3(c)) only to be used where Level 3 is not available.	AT.CAED/9008391215721.FACILITY	Zementwerk Hatschek GmbH	13.778	47.92278	Gmunden	Carbon dioxide (CO2)	406000000.0	2007	1	0
106	Austria	3	Mineral industry	3(c)	Installations for the production of cement clinker in rotary kilns, lime in rotary kilns, cement or lime in other furnaces. Note to reporters, use Level 3 activity e.g. 3(c)(i), in preference to 3(c). Level 2 activity class (i.e. 3(c)) only to be used where Level 3 is not available.	AT.CAED/9008391215721.FACILITY	Zementwerk Hatschek GmbH	13.778	47.92278	Gmunden	Carbon monoxide (CO)	770000.0	2007	1	0
107	Austria	3	Mineral industry	3(c)	Installations for the production of cement clinker in rotary kilns, lime in rotary kilns, cement or lime in other furnaces. Note to reporters, use Level 3 activity e.g. 3(c)(i), in preference to 3(c). Level 2 activity class (i.e. 3(c)) only to be used where Level 3 is not available.	AT.CAED/9008391215721.FACILITY	Zementwerk Hatschek GmbH	13.778	47.92278	Gmunden	Mercury and compounds (as Hg)	12.1	2007	1	0
108	Austria	3	Mineral industry	3(c)	Installations for the production of cement clinker in rotary kilns, lime in rotary kilns, cement or lime in other furnaces. Note to reporters, use Level 3 activity e.g. 3(c)(i), in preference to 3(c). Level 2 activity class (i.e. 3(c)) only to be used where Level 3 is not available.	AT.CAED/9008391215721.FACILITY	Zementwerk Hatschek GmbH	13.778	47.92278	Gmunden	Nitrogen oxides (NOX)	576000.0	2007	1	0
109	Austria	5	Waste and wastewater management	5(b)	Installations for the incineration of non-hazardous waste in the scope of Directive 2000/76/EC of the European Parliament and of the Council of 4 December 2000 on the incineration of waste	AT.CAED/9008391215752.FACILITY	EVN Wärmekraftwerke GmbH	15.932417	48.32739	Dürnrohr	Carbon dioxide (CO2)	293000000.0	2007	1	0
110	Austria	5	Waste and wastewater management	5(b)	Installations for the incineration of non-hazardous waste in the scope of Directive 2000/76/EC of the European Parliament and of the Council of 4 December 2000 on the incineration of waste	AT.CAED/9008391215752.FACILITY	EVN Wärmekraftwerke GmbH	15.932417	48.32739	Dürnrohr	Mercury and compounds (as Hg)	17.3	2007	1	0
111	Austria	5	Waste and wastewater management	5(b)	Installations for the incineration of non-hazardous waste in the scope of Directive 2000/76/EC of the European Parliament and of the Council of 4 December 2000 on the incineration of waste	AT.CAED/9008391215769.FACILITY	EEVG Entsorgungs- und Energieverwertungsges.m.b.H.	13.799917	47.992332	Stötten	Carbon dioxide (CO2)	183000000.0	2007	1	0
112	Austria	5	Waste and wastewater management	5(b)	Installations for the incineration of non-hazardous waste in the scope of Directive 2000/76/EC of the European Parliament and of the Council of 4 December 2000 on the incineration of waste	AT.CAED/9008391215769.FACILITY	EEVG Entsorgungs- und Energieverwertungsges.m.b.H.	13.799917	47.992332	Stötten	Nitrogen oxides (NOX)	191000.0	2007	1	0
113	Austria	3	Mineral industry	3(c)	Installations for the production of cement clinker in rotary kilns, lime in rotary kilns, cement or lime in other furnaces. Note to reporters, use Level 3 activity e.g. 3(c)(i), in preference to 3(c). Level 2 activity class (i.e. 3(c)) only to be used where Level 3 is not available.	AT.CAED/9008391215806.FACILITY	SCHRETTER & CIE GmbH & Co KG	10.637861	47.55153	Vils	Carbon dioxide (CO2)	244000000.0	2007	1	0
114	Austria	3	Mineral industry	3(c)	Installations for the production of cement clinker in rotary kilns, lime in rotary kilns, cement or lime in other furnaces. Note to reporters, use Level 3 activity e.g. 3(c)(i), in preference to 3(c). Level 2 activity class (i.e. 3(c)) only to be used where Level 3 is not available.	AT.CAED/9008391215806.FACILITY	SCHRETTER & CIE GmbH & Co KG	10.637861	47.55153	Vils	Carbon monoxide (CO)	652000.0	2007	1	0
115	Austria	3	Mineral industry	3(c)	Installations for the production of cement clinker in rotary kilns, lime in rotary kilns, cement or lime in other furnaces. Note to reporters, use Level 3 activity e.g. 3(c)(i), in preference to 3(c). Level 2 activity class (i.e. 3(c)) only to be used where Level 3 is not available.	AT.CAED/9008391215806.FACILITY	SCHRETTER & CIE GmbH & Co KG	10.637861	47.55153	Vils	Nitrogen oxides (NOX)	402000.0	2007	1	0
116	Austria	3	Mineral industry	3(c)	Installations for the production of cement clinker in rotary kilns, lime in rotary kilns, cement or lime in other furnaces. Note to reporters, use Level 3 activity e.g. 3(c)(i), in preference to 3(c). Level 2 activity class (i.e. 3(c)) only to be used where Level 3 is not available.	AT.CAED/9008391215837.FACILITY	Zementwerk Leube GmbH	13.052528	47.721443	Hallein	Ammonia (NH3)	31200.0	2007	1	0
117	Austria	3	Mineral industry	3(c)	Installations for the production of cement clinker in rotary kilns, lime in rotary kilns, cement or lime in other furnaces. Note to reporters, use Level 3 activity e.g. 3(c)(i), in preference to 3(c). Level 2 activity class (i.e. 3(c)) only to be used where Level 3 is not available.	AT.CAED/9008391215837.FACILITY	Zementwerk Leube GmbH	13.052528	47.721443	Hallein	Carbon dioxide (CO2)	378000000.0	2007	1	0
118	Austria	3	Mineral industry	3(c)	Installations for the production of cement clinker in rotary kilns, lime in rotary kilns, cement or lime in other furnaces. Note to reporters, use Level 3 activity e.g. 3(c)(i), in preference to 3(c). Level 2 activity class (i.e. 3(c)) only to be used where Level 3 is not available.	AT.CAED/9008391215837.FACILITY	Zementwerk Leube GmbH	13.052528	47.721443	Hallein	Carbon monoxide (CO)	1080000.0	2007	1	0
119	Austria	3	Mineral industry	3(c)	Installations for the production of cement clinker in rotary kilns, lime in rotary kilns, cement or lime in other furnaces. Note to reporters, use Level 3 activity e.g. 3(c)(i), in preference to 3(c). Level 2 activity class (i.e. 3(c)) only to be used where Level 3 is not available.	AT.CAED/9008391215837.FACILITY	Zementwerk Leube GmbH	13.052528	47.721443	Hallein	Nitrogen oxides (NOX)	482000.0	2007	1	0
120	Austria	3	Mineral industry	3(c)	Installations for the production of cement clinker in rotary kilns, lime in rotary kilns, cement or lime in other furnaces. Note to reporters, use Level 3 activity e.g. 3(c)(i), in preference to 3(c). Level 2 activity class (i.e. 3(c)) only to be used where Level 3 is not available.	AT.CAED/9008391215837.FACILITY	Zementwerk Leube GmbH	13.052528	47.721443	Hallein	Polycyclic aromatic hydrocarbons (PAHs)	75.8	2007	1	0
121	Austria	1	Energy sector	1(c)	Thermal power stations and other combustion installations	AT.CAED/9008391228615.FACILITY	Trans Austria Gasleitung GmbH	16.872833	48.316807	Baumgarten an der March	Carbon dioxide (CO2)	234000000.0	2007	1	0
122	Austria	1	Energy sector	1(c)	Thermal power stations and other combustion installations	AT.CAED/9008391228615.FACILITY	Trans Austria Gasleitung GmbH	16.872833	48.316807	Baumgarten an der March	Methane (CH4)	1190000.0	2007	1	0
123	Austria	1	Energy sector	1(c)	Thermal power stations and other combustion installations	AT.CAED/9008391228615.FACILITY	Trans Austria Gasleitung GmbH	16.872833	48.316807	Baumgarten an der March	Nitrogen oxides (NOX)	694000.0	2007	1	0
124	Austria	3	Mineral industry	3(c)	Installations for the production of cement clinker in rotary kilns, lime in rotary kilns, cement or lime in other furnaces. Note to reporters, use Level 3 activity e.g. 3(c)(i), in preference to 3(c). Level 2 activity class (i.e. 3(c)) only to be used where Level 3 is not available.	AT.CAED/9008391591573.FACILITY	Lafarge Zementwerke GmbH	15.050722	46.06736	Ehrenhausen	Ammonia (NH3)	62200.0	2007	1	0
125	Austria	3	Mineral industry	3(c)	Installations for the production of cement clinker in rotary kilns, lime in rotary kilns, cement or lime in other furnaces. Note to reporters, use Level 3 activity e.g. 3(c)(i), in preference to 3(c). Level 2 activity class (i.e. 3(c)) only to be used where Level 3 is not available.	AT.CAED/9008391591573.FACILITY	Lafarge Zementwerke GmbH	15.050722	46.06736	Ehrenhausen	Carbon dioxide (CO2)	349000000.0	2007	1	0
126	Austria	3	Mineral industry	3(c)	Installations for the production of cement clinker in rotary kilns, lime in rotary kilns, cement or lime in other furnaces. Note to reporters, use Level 3 activity e.g. 3(c)(i), in preference to 3(c). Level 2 activity class (i.e. 3(c)) only to be used where Level 3 is not available.	AT.CAED/9008391591573.FACILITY	Lafarge Zementwerke GmbH	15.050722	46.06736	Ehrenhausen	Carbon monoxide (CO)	3010000.0	2007	1	0
127	Austria	3	Mineral industry	3(c)	Installations for the production of cement clinker in rotary kilns, lime in rotary kilns, cement or lime in other furnaces. Note to reporters, use Level 3 activity e.g. 3(c)(i), in preference to 3(c). Level 2 activity class (i.e. 3(c)) only to be used where Level 3 is not available.	AT.CAED/9008391591573.FACILITY	Lafarge Zementwerke GmbH	15.050722	46.06736	Ehrenhausen	Nitrogen oxides (NOX)	402000.0	2007	1	0
128	Austria	3	Mineral industry	3(c)	Installations for the production of cement clinker in rotary kilns, lime in rotary kilns, cement or lime in other furnaces. Note to reporters, use Level 3 activity e.g. 3(c)(i), in preference to 3(c). Level 2 activity class (i.e. 3(c)) only to be used where Level 3 is not available.	AT.CAED/9008391597537.FACILITY	Lafarge Zementwerke GmbH	16.6	47.983334	Mannersdorf am Leithagebirge	Ammonia (NH3)	11600.0	2007	1	0
129	Austria	3	Mineral industry	3(c)	Installations for the production of cement clinker in rotary kilns, lime in rotary kilns, cement or lime in other furnaces. Note to reporters, use Level 3 activity e.g. 3(c)(i), in preference to 3(c). Level 2 activity class (i.e. 3(c)) only to be used where Level 3 is not available.	AT.CAED/9008391597537.FACILITY	Lafarge Zementwerke GmbH	16.6	47.983334	Mannersdorf am Leithagebirge	Carbon dioxide (CO2)	731000000.0	2007	1	0
130	Austria	3	Mineral industry	3(c)	Installations for the production of cement clinker in rotary kilns, lime in rotary kilns, cement or lime in other furnaces. Note to reporters, use Level 3 activity e.g. 3(c)(i), in preference to 3(c). Level 2 activity class (i.e. 3(c)) only to be used where Level 3 is not available.	AT.CAED/9008391597537.FACILITY	Lafarge Zementwerke GmbH	16.6	47.983334	Mannersdorf am Leithagebirge	Carbon monoxide (CO)	2890000.0	2007	1	0
131	Austria	3	Mineral industry	3(c)	Installations for the production of cement clinker in rotary kilns, lime in rotary kilns, cement or lime in other furnaces. Note to reporters, use Level 3 activity e.g. 3(c)(i), in preference to 3(c). Level 2 activity class (i.e. 3(c)) only to be used where Level 3 is not available.	AT.CAED/9008391597537.FACILITY	Lafarge Zementwerke GmbH	16.6	47.983334	Mannersdorf am Leithagebirge	Mercury and compounds (as Hg)	22.0	2007	1	0
132	Austria	3	Mineral industry	3(c)	Installations for the production of cement clinker in rotary kilns, lime in rotary kilns, cement or lime in other furnaces. Note to reporters, use Level 3 activity e.g. 3(c)(i), in preference to 3(c). Level 2 activity class (i.e. 3(c)) only to be used where Level 3 is not available.	AT.CAED/9008391597537.FACILITY	Lafarge Zementwerke GmbH	16.6	47.983334	Mannersdorf am Leithagebirge	Nitrogen oxides (NOX)	1100000.0	2007	1	0
133	Austria	1	Energy sector	1(c)	Thermal power stations and other combustion installations	AT.EEA/229162.FACILITY	Stadtwerke Klagenfurt AG	14.3	46.61667	Klagenfurt,01.Bez.:Innere Stadt	Carbon dioxide (CO2)	147000000.0	2007	1	0
134	Austria	1	Energy sector	1(c)	Thermal power stations and other combustion installations	AT.EEA/229162.FACILITY	Stadtwerke Klagenfurt AG	14.3	46.61667	Klagenfurt,01.Bez.:Innere Stadt	Nitrogen oxides (NOX)	232000.0	2007	1	0
135	Austria	1	Energy sector	1(c)	Thermal power stations and other combustion installations	AT.EEA/229162.FACILITY	Stadtwerke Klagenfurt AG	14.3	46.61667	Klagenfurt,01.Bez.:Innere Stadt	Sulphur oxides (SOX)	392000.0	2007	1	0
136	Austria	1	Energy sector	1(c)	Thermal power stations and other combustion installations	AT.EEA/229169.FACILITY	Salzburg AG f. Energie Verkehr und Telekommunikation	13.033333	47.8	Salzburg	Carbon dioxide (CO2)	161000000.0	2007	1	0
137	Austria	2	Production and processing of metals	2(e)	Installations for the production and/or smelting of non-ferrous metals. Note to reporters, use Level 3 activity e.g. 2(e)(i), in preference to 2(e). Level 2 activity class (i.e. 2(e)) only to be used where Level 3 is not available.	AT.EEA/229172.FACILITY	Aluminium Lend GmbH & Co.Kg	13.051556	47.297695	Lend	Hydrogen cyanide (HCN)	282.0	2007	1	0
138	Austria	9	Other activities	9(c)	Installations for the surface treatment of substances, objects or products using organic solvents, in particular for dressing, printing, coating, degreasing, waterproofing, sizing, painting, cleaning or impregnating	AT.EEA/229173.FACILITY	Pawag Verpackungen Ges.m.b.H.	9.740667	47.48411	Wolfurt	Non-methane volatile organic compounds (NMVOC)	231000.0	2007	1	0
139	Austria	8	Animal and vegetable products from the food and beverage sector	8(b)	Treatment and processing intended for the production of food and beverage products. Note to reporters, use Level 3 activity e.g. 8(b)(i), in preference to 8(b). Level 2 activity class (i.e. 8(b)) only to be used where Level 3 is not available.	AT.EEA/229218.FACILITY	AGRANA Zucker GmbH	16.702778	48.243057	Leopoldsdorf im Marchfelde	Carbon monoxide (CO)	725000.0	2007	1	0
140	Austria	5	Waste and wastewater management	5(c)	Installations for the disposal of non-hazardous waste	AT.EEA/229222.FACILITY	Wiener Neustädter Stadtwerke und Kommunal GmbH	16.209	47.85489	Steinabrückl	Methane (CH4)	211000.0	2007	1	0
141	Austria	4	Chemical industry	4(e)	Installations using a chemical or biological process for the production on an industrial scale of basic pharmaceutical products	AT.EEA/229271.FACILITY	Sandoz GmbH	11.979528	47.467304	Kundl	Carbon dioxide (CO2)	172000000.0	2007	1	0
142	Austria	4	Chemical industry	4(e)	Installations using a chemical or biological process for the production on an industrial scale of basic pharmaceutical products	AT.EEA/229271.FACILITY	Sandoz GmbH	11.979528	47.467304	Kundl	Dichloromethane (DCM)	13000.0	2007	1	0
143	Austria	4	Chemical industry	4(e)	Installations using a chemical or biological process for the production on an industrial scale of basic pharmaceutical products	AT.EEA/229271.FACILITY	Sandoz GmbH	11.979528	47.467304	Kundl	Hydrochlorofluorocarbons (HCFCs)	484.0	2007	1	0
144	Austria	4	Chemical industry	4(e)	Installations using a chemical or biological process for the production on an industrial scale of basic pharmaceutical products	AT.EEA/229271.FACILITY	Sandoz GmbH	11.979528	47.467304	Kundl	Non-methane volatile organic compounds (NMVOC)	130000.0	2007	1	0
145	Austria	5	Waste and wastewater management	5(d)	Landfills (excluding landfills of inert waste and landfills, which were definitely closed before 16.7.2001 or for which the after-care phase required by the competent authorities according to Article 13 of Council Directive 1999/31/EC of 26 April 1999 on the landfill of waste has expired)	AT.EEA/30038.FACILITY	AVE Österreich GmbH	14.030667	48.388363	Unterhart	Methane (CH4)	403000.0	2007	1	0
146	Austria	5	Waste and wastewater management	5(d)	Landfills (excluding landfills of inert waste and landfills, which were definitely closed before 16.7.2001 or for which the after-care phase required by the competent authorities according to Article 13 of Council Directive 1999/31/EC of 26 April 1999 on the landfill of waste has expired)	AT.EEA/30045.FACILITY	Abfallwirtschaftsverband Osttirol	12.870639	46.786804	Lavant	Methane (CH4)	330000.0	2007	1	0
147	Austria	5	Waste and wastewater management	5(d)	Landfills (excluding landfills of inert waste and landfills, which were definitely closed before 16.7.2001 or for which the after-care phase required by the competent authorities according to Article 13 of Council Directive 1999/31/EC of 26 April 1999 on the landfill of waste has expired)	AT.EEA/52009.FACILITY	ENTSORGA Entsorgungsgesellschaft m.b.H. Nfg KG	14.546667	46.648888	Tainach	Methane (CH4)	323000.0	2007	1	0
148	Austria	5	Waste and wastewater management	5(d)	Landfills (excluding landfills of inert waste and landfills, which were definitely closed before 16.7.2001 or for which the after-care phase required by the competent authorities according to Article 13 of Council Directive 1999/31/EC of 26 April 1999 on the landfill of waste has expired)	AT.EEA/52019.FACILITY	Deponie Riederberg GmbH.+ Co.KG.	12.110833	47.47972	Wörgl	Methane (CH4)	1960000.0	2007	1	0
149	Austria	5	Waste and wastewater management	5(f)	Urban waste-water treatment plants	AT.EEA/52025.FACILITY	Linz Service GmbH für Infrastruktur und Kommunale Dienste	14.408583	48.236916	Asten	Nitrous oxide (N2O)	12800.0	2007	1	0
150	Austria	5	Waste and wastewater management	5(d)	Landfills (excluding landfills of inert waste and landfills, which were definitely closed before 16.7.2001 or for which the after-care phase required by the competent authorities according to Article 13 of Council Directive 1999/31/EC of 26 April 1999 on the landfill of waste has expired)	AT.EEA/52036.FACILITY	Abwasser- und Abfallverband Großache-Süd	12.411806	47.346863	Jochberg	Methane (CH4)	175000.0	2007	1	0
151	Austria	5	Waste and wastewater management	5(d)	Landfills (excluding landfills of inert waste and landfills, which were definitely closed before 16.7.2001 or for which the after-care phase required by the competent authorities according to Article 13 of Council Directive 1999/31/EC of 26 April 1999 on the landfill of waste has expired)	AT.EEA/5682.FACILITY	NUA-Abfallwirtschaft GmbH	16.702639	48.44653	Hohenruppersdorf	Methane (CH4)	235000.0	2007	1	0
152	Austria	5	Waste and wastewater management	5(d)	Landfills (excluding landfills of inert waste and landfills, which were definitely closed before 16.7.2001 or for which the after-care phase required by the competent authorities according to Article 13 of Council Directive 1999/31/EC of 26 April 1999 on the landfill of waste has expired)	AT.EEA/5684.FACILITY	NUA-Abfallwirtschaft GmbH	14.540417	48.19153	Thurnsdorf	Methane (CH4)	250000.0	2007	1	0
153	Austria	4	Chemical industry	4(a)	Chemical installations for the production on an industrial scale of basic organic chemicals. Note to reporters, use Level 3 activity e.g. 4(a)(iii), in preference to 4(a). Level 2 activity class (i.e. 4(a)) only to be used where Level 3 is not available.	AT.EEA/5746.FACILITY	AMI Agrolinz Melamine International GmbH	14.035333	48.01786	Linz	Ammonia (NH3)	75900.0	2007	1	0
154	Austria	4	Chemical industry	4(a)	Chemical installations for the production on an industrial scale of basic organic chemicals. Note to reporters, use Level 3 activity e.g. 4(a)(iii), in preference to 4(a). Level 2 activity class (i.e. 4(a)) only to be used where Level 3 is not available.	AT.EEA/5746.FACILITY	AMI Agrolinz Melamine International GmbH	14.035333	48.01786	Linz	Carbon dioxide (CO2)	541000000.0	2007	1	0
155	Austria	4	Chemical industry	4(a)	Chemical installations for the production on an industrial scale of basic organic chemicals. Note to reporters, use Level 3 activity e.g. 4(a)(iii), in preference to 4(a). Level 2 activity class (i.e. 4(a)) only to be used where Level 3 is not available.	AT.EEA/5746.FACILITY	AMI Agrolinz Melamine International GmbH	14.035333	48.01786	Linz	Methane (CH4)	418000.0	2007	1	0
156	Austria	4	Chemical industry	4(a)	Chemical installations for the production on an industrial scale of basic organic chemicals. Note to reporters, use Level 3 activity e.g. 4(a)(iii), in preference to 4(a). Level 2 activity class (i.e. 4(a)) only to be used where Level 3 is not available.	AT.EEA/5746.FACILITY	AMI Agrolinz Melamine International GmbH	14.035333	48.01786	Linz	Nitrogen oxides (NOX)	390000.0	2007	1	0
157	Austria	4	Chemical industry	4(a)	Chemical installations for the production on an industrial scale of basic organic chemicals. Note to reporters, use Level 3 activity e.g. 4(a)(iii), in preference to 4(a). Level 2 activity class (i.e. 4(a)) only to be used where Level 3 is not available.	AT.EEA/5746.FACILITY	AMI Agrolinz Melamine International GmbH	14.035333	48.01786	Linz	Nitrous oxide (N2O)	871000.0	2007	1	0
158	Austria	1	Energy sector	1(c)	Thermal power stations and other combustion installations	AT.EEA/5748.FACILITY	EVN AG	16.0	48.0	Korneuburg	Carbon dioxide (CO2)	103000000.0	2007	1	0
159	Austria	1	Energy sector	1(c)	Thermal power stations and other combustion installations	AT.EEA/5749.FACILITY	EVN AG	15.067083	48.033916	unbekannt	Carbon dioxide (CO2)	349000000.0	2007	1	0
160	Austria	1	Energy sector	1(c)	Thermal power stations and other combustion installations	AT.EEA/5749.FACILITY	EVN AG	15.067083	48.033916	unbekannt	Nitrogen oxides (NOX)	260000.0	2007	1	0
161	Austria	1	Energy sector	1(c)	Thermal power stations and other combustion installations	AT.EEA/5750.FACILITY	EVN AG	15.08425	48.018223	Zwentendorf an der Donau	Carbon dioxide (CO2)	1050000000.0	2007	1	0
162	Austria	1	Energy sector	1(c)	Thermal power stations and other combustion installations	AT.EEA/5750.FACILITY	EVN AG	15.08425	48.018223	Zwentendorf an der Donau	Nitrogen oxides (NOX)	649000.0	2007	1	0
163	Austria	1	Energy sector	1(c)	Thermal power stations and other combustion installations	AT.EEA/5750.FACILITY	EVN AG	15.08425	48.018223	Zwentendorf an der Donau	Particulate matter (PM10)	64200.0	2007	1	0
164	Austria	1	Energy sector	1(c)	Thermal power stations and other combustion installations	AT.EEA/5750.FACILITY	EVN AG	15.08425	48.018223	Zwentendorf an der Donau	Sulphur oxides (SOX)	288000.0	2007	1	0
165	Austria	3	Mineral industry	3(c)	Installations for the production of cement clinker in rotary kilns, lime in rotary kilns, cement or lime in other furnaces. Note to reporters, use Level 3 activity e.g. 3(c)(i), in preference to 3(c). Level 2 activity class (i.e. 3(c)) only to be used where Level 3 is not available.	AT.EEA/5773.FACILITY	Zementwerk Leube GmbH	13.17725	47.57711	Golling an der Salzach	Carbon dioxide (CO2)	119000000.0	2007	1	0
166	Austria	3	Mineral industry	3(e)	Installations for the manufacture of glass, including glass fibre	AT.EEA/5775.FACILITY	Saint-Gobain Isover Austria GmbH	16.019	48.03389	Stockerau	Ammonia (NH3)	16300.0	2007	1	0
167	Austria	1	Energy sector	1(c)	Thermal power stations and other combustion installations	AT.EEA/5777.FACILITY	Energie AG Oberösterreich Erzeugung GmbH	12.843889	48.032223	Riedersbach	Carbon dioxide (CO2)	586000000.0	2007	1	0
168	Austria	1	Energy sector	1(c)	Thermal power stations and other combustion installations	AT.EEA/5777.FACILITY	Energie AG Oberösterreich Erzeugung GmbH	12.843889	48.032223	Riedersbach	Nitrogen oxides (NOX)	602000.0	2007	1	0
169	Austria	1	Energy sector	1(c)	Thermal power stations and other combustion installations	AT.EEA/5777.FACILITY	Energie AG Oberösterreich Erzeugung GmbH	12.843889	48.032223	Riedersbach	Nitrous oxide (N2O)	12300.0	2007	1	0
170	Austria	5	Waste and wastewater management	5(d)	Landfills (excluding landfills of inert waste and landfills, which were definitely closed before 16.7.2001 or for which the after-care phase required by the competent authorities according to Article 13 of Council Directive 1999/31/EC of 26 April 1999 on the landfill of waste has expired)	AT.EEA/5796.FACILITY	Böschistobel Abfallentsorgung GmbH	9.724833	47.16639	Nenzing	Methane (CH4)	246000.0	2007	1	0
171	Austria	5	Waste and wastewater management	5(c)	Installations for the disposal of non-hazardous waste	AT.EEA/5802.FACILITY	Abfallwirtschaftsverband Mürzverband	15.383333	47.466667	Wieden	Methane (CH4)	132000.0	2007	1	0
172	Austria	1	Energy sector	1(c)	Thermal power stations and other combustion installations	AT.EEA/5806.FACILITY	Linz Strom GmbH	14.323611	48.29889	Linz	Carbon dioxide (CO2)	318000000.0	2007	1	0
173	Austria	1	Energy sector	1(c)	Thermal power stations and other combustion installations	AT.EEA/5806.FACILITY	Linz Strom GmbH	14.323611	48.29889	Linz	Nitrogen oxides (NOX)	180000.0	2007	1	0
174	Austria	1	Energy sector	1(c)	Thermal power stations and other combustion installations	AT.EEA/5807.FACILITY	Linz Strom GmbH	14.346667	48.268055	Linz	Carbon dioxide (CO2)	246000000.0	2007	1	0
175	Austria	1	Energy sector	1(c)	Thermal power stations and other combustion installations	AT.EEA/5807.FACILITY	Linz Strom GmbH	14.346667	48.268055	Linz	Nitrogen oxides (NOX)	101000.0	2007	1	0
176	Austria	3	Mineral industry	3(f)	Installations for melting mineral substances, including the production of mineral fibres	AT.EEA/5819.FACILITY	Knauf Insulation GmbH	13.05125	46.067333	Ferndorf	Sulphur oxides (SOX)	154000.0	2007	1	0
177	Austria	3	Mineral industry	3(c)	Installations for the production of cement clinker in rotary kilns, lime in rotary kilns, cement or lime in other furnaces. Note to reporters, use Level 3 activity e.g. 3(c)(i), in preference to 3(c). Level 2 activity class (i.e. 3(c)) only to be used where Level 3 is not available.	AT.EEA/5824.FACILITY	Wietersdorfer und Peggauer Zementwerke GmbH	14.533056	46.850555	Wietersdorf	Carbon dioxide (CO2)	511000000.0	2007	1	0
178	Austria	3	Mineral industry	3(c)	Installations for the production of cement clinker in rotary kilns, lime in rotary kilns, cement or lime in other furnaces. Note to reporters, use Level 3 activity e.g. 3(c)(i), in preference to 3(c). Level 2 activity class (i.e. 3(c)) only to be used where Level 3 is not available.	AT.EEA/5824.FACILITY	Wietersdorfer und Peggauer Zementwerke GmbH	14.533056	46.850555	Wietersdorf	Carbon monoxide (CO)	1170000.0	2007	1	0
179	Austria	3	Mineral industry	3(c)	Installations for the production of cement clinker in rotary kilns, lime in rotary kilns, cement or lime in other furnaces. Note to reporters, use Level 3 activity e.g. 3(c)(i), in preference to 3(c). Level 2 activity class (i.e. 3(c)) only to be used where Level 3 is not available.	AT.EEA/5824.FACILITY	Wietersdorfer und Peggauer Zementwerke GmbH	14.533056	46.850555	Wietersdorf	Mercury and compounds (as Hg)	25.9	2007	1	0
180	Austria	3	Mineral industry	3(c)	Installations for the production of cement clinker in rotary kilns, lime in rotary kilns, cement or lime in other furnaces. Note to reporters, use Level 3 activity e.g. 3(c)(i), in preference to 3(c). Level 2 activity class (i.e. 3(c)) only to be used where Level 3 is not available.	AT.EEA/5824.FACILITY	Wietersdorfer und Peggauer Zementwerke GmbH	14.533056	46.850555	Wietersdorf	Nitrogen oxides (NOX)	548000.0	2007	1	0
181	Austria	5	Waste and wastewater management	5(d)	Landfills (excluding landfills of inert waste and landfills, which were definitely closed before 16.7.2001 or for which the after-care phase required by the competent authorities according to Article 13 of Council Directive 1999/31/EC of 26 April 1999 on the landfill of waste has expired)	AT.EEA/5849.FACILITY	Rottner, Ing. Rudolf Gesellschaft m.b.H.	16.050861	48.118027	Fischamend-Dorf	Methane (CH4)	975000.0	2007	1	0
182	Austria	4	Chemical industry	4(a)	Chemical installations for the production on an industrial scale of basic organic chemicals. Note to reporters, use Level 3 activity e.g. 4(a)(iii), in preference to 4(a). Level 2 activity class (i.e. 4(a)) only to be used where Level 3 is not available.	AT.EEA/5851.FACILITY	DSM Fine Chemicals Austria Nfg GmbH & Co KG	14.328611	48.288055	Linz	Carbon dioxide (CO2)	112000000.0	2007	1	0
183	Austria	5	Waste and wastewater management	5(d)	Landfills (excluding landfills of inert waste and landfills, which were definitely closed before 16.7.2001 or for which the after-care phase required by the competent authorities according to Article 13 of Council Directive 1999/31/EC of 26 April 1999 on the landfill of waste has expired)	AT.EEA/5852.FACILITY	Innsbrucker Kommunalbetriebe AG	11.033972	47.017166	Vill	Methane (CH4)	1050000.0	2007	1	0
184	Austria	6	Paper and wood production and processing	6(b)	Industrial plants for the production of paper and board and other primary wood products (such as chipboard, fibreboard and plywood)	AT.EEA/5860.FACILITY	Mondi Frantschach GmbH	14.86525	46.86222	Frantschach	Carbon dioxide (CO2)	747000000.0	2007	1	0
185	Austria	6	Paper and wood production and processing	6(b)	Industrial plants for the production of paper and board and other primary wood products (such as chipboard, fibreboard and plywood)	AT.EEA/5860.FACILITY	Mondi Frantschach GmbH	14.86525	46.86222	Frantschach	Nitrogen oxides (NOX)	581000.0	2007	1	0
186	Austria	5	Waste and wastewater management	5(d)	Landfills (excluding landfills of inert waste and landfills, which were definitely closed before 16.7.2001 or for which the after-care phase required by the competent authorities according to Article 13 of Council Directive 1999/31/EC of 26 April 1999 on the landfill of waste has expired)	AT.EEA/5867.FACILITY	Häusle GmbH	9.676194	47.45961	Lustenau	Methane (CH4)	243000.0	2007	1	0
187	Austria	2	Production and processing of metals	2(b)	Installations for the production of pig iron or steel (primary or secondary melting) including continuous casting	AT.EEA/5868.FACILITY	voestalpine Stahl GmbH	14.343056	48.281944	Linz	Benzene	4380.0	2007	1	0
188	Austria	2	Production and processing of metals	2(b)	Installations for the production of pig iron or steel (primary or secondary melting) including continuous casting	AT.EEA/5868.FACILITY	voestalpine Stahl GmbH	14.343056	48.281944	Linz	Cadmium and compounds (as Cd)	15.3	2007	1	0
189	Austria	2	Production and processing of metals	2(b)	Installations for the production of pig iron or steel (primary or secondary melting) including continuous casting	AT.EEA/5868.FACILITY	voestalpine Stahl GmbH	14.343056	48.281944	Linz	Carbon dioxide (CO2)	8730000000.0	2007	1	0
190	Austria	2	Production and processing of metals	2(b)	Installations for the production of pig iron or steel (primary or secondary melting) including continuous casting	AT.EEA/5868.FACILITY	voestalpine Stahl GmbH	14.343056	48.281944	Linz	Carbon monoxide (CO)	82700000.0	2007	1	0
191	Austria	2	Production and processing of metals	2(b)	Installations for the production of pig iron or steel (primary or secondary melting) including continuous casting	AT.EEA/5868.FACILITY	voestalpine Stahl GmbH	14.343056	48.281944	Linz	Chlorine and inorganic compounds (as HCl)	24200.0	2007	1	0
192	Austria	2	Production and processing of metals	2(b)	Installations for the production of pig iron or steel (primary or secondary melting) including continuous casting	AT.EEA/5868.FACILITY	voestalpine Stahl GmbH	14.343056	48.281944	Linz	Chromium and compounds (as Cr)	138.0	2007	1	0
193	Austria	2	Production and processing of metals	2(b)	Installations for the production of pig iron or steel (primary or secondary melting) including continuous casting	AT.EEA/5868.FACILITY	voestalpine Stahl GmbH	14.343056	48.281944	Linz	Hydrogen cyanide (HCN)	564.0	2007	1	0
194	Austria	2	Production and processing of metals	2(b)	Installations for the production of pig iron or steel (primary or secondary melting) including continuous casting	AT.EEA/5868.FACILITY	voestalpine Stahl GmbH	14.343056	48.281944	Linz	Lead and compounds (as Pb)	1750.0	2007	1	0
195	Austria	2	Production and processing of metals	2(b)	Installations for the production of pig iron or steel (primary or secondary melting) including continuous casting	AT.EEA/5868.FACILITY	voestalpine Stahl GmbH	14.343056	48.281944	Linz	Mercury and compounds (as Hg)	322.0	2007	1	0
196	Austria	2	Production and processing of metals	2(b)	Installations for the production of pig iron or steel (primary or secondary melting) including continuous casting	AT.EEA/5868.FACILITY	voestalpine Stahl GmbH	14.343056	48.281944	Linz	Methane (CH4)	205000.0	2007	1	0
197	Austria	2	Production and processing of metals	2(b)	Installations for the production of pig iron or steel (primary or secondary melting) including continuous casting	AT.EEA/5868.FACILITY	voestalpine Stahl GmbH	14.343056	48.281944	Linz	Nickel and compounds (as Ni)	399.0	2007	1	0
198	Austria	2	Production and processing of metals	2(b)	Installations for the production of pig iron or steel (primary or secondary melting) including continuous casting	AT.EEA/5868.FACILITY	voestalpine Stahl GmbH	14.343056	48.281944	Linz	Nitrogen oxides (NOX)	3530000.0	2007	1	0
199	Austria	2	Production and processing of metals	2(b)	Installations for the production of pig iron or steel (primary or secondary melting) including continuous casting	AT.EEA/5868.FACILITY	voestalpine Stahl GmbH	14.343056	48.281944	Linz	Particulate matter (PM10)	370000.0	2007	1	0
200	Austria	2	Production and processing of metals	2(b)	Installations for the production of pig iron or steel (primary or secondary melting) including continuous casting	AT.EEA/5868.FACILITY	voestalpine Stahl GmbH	14.343056	48.281944	Linz	PCDD + PCDF (dioxins + furans) (as Teq)	0.00232	2007	1	0
201	Austria	2	Production and processing of metals	2(b)	Installations for the production of pig iron or steel (primary or secondary melting) including continuous casting	AT.EEA/5868.FACILITY	voestalpine Stahl GmbH	14.343056	48.281944	Linz	Sulphur oxides (SOX)	4300000.0	2007	1	0
202	Austria	2	Production and processing of metals	2(b)	Installations for the production of pig iron or steel (primary or secondary melting) including continuous casting	AT.EEA/5868.FACILITY	voestalpine Stahl GmbH	14.343056	48.281944	Linz	Zinc and compounds (as Zn)	14600.0	2007	1	0
203	Austria	1	Energy sector	1(c)	Thermal power stations and other combustion installations	AT.EEA/5880.FACILITY	VERBUND Thermal Power GmbH & Co KG	15.483611	46.90889	Wildon	Carbon dioxide (CO2)	302000000.0	2007	1	0
204	Austria	1	Energy sector	1(c)	Thermal power stations and other combustion installations	AT.EEA/5880.FACILITY	VERBUND Thermal Power GmbH & Co KG	15.483611	46.90889	Wildon	Nitrogen oxides (NOX)	153000.0	2007	1	0
205	Austria	5	Waste and wastewater management	5(g)	Independently operated industrial waste-water treatment plants which serve one or more activities covered in annex 1 of Regulation 166/2006	AT.EEA/5893.FACILITY	Sappi Austria Produktions-GmbH & Co. KG	15.334056	47.13411	Forstviertel	Ammonia (NH3)	27000.0	2007	1	0
206	Austria	5	Waste and wastewater management	5(g)	Independently operated industrial waste-water treatment plants which serve one or more activities covered in annex 1 of Regulation 166/2006	AT.EEA/5893.FACILITY	Sappi Austria Produktions-GmbH & Co. KG	15.334056	47.13411	Forstviertel	Carbon dioxide (CO2)	400000000.0	2007	1	0
207	Austria	5	Waste and wastewater management	5(g)	Independently operated industrial waste-water treatment plants which serve one or more activities covered in annex 1 of Regulation 166/2006	AT.EEA/5893.FACILITY	Sappi Austria Produktions-GmbH & Co. KG	15.334056	47.13411	Forstviertel	Nitrogen oxides (NOX)	502000.0	2007	1	0
208	Austria	5	Waste and wastewater management	5(g)	Independently operated industrial waste-water treatment plants which serve one or more activities covered in annex 1 of Regulation 166/2006	AT.EEA/5893.FACILITY	Sappi Austria Produktions-GmbH & Co. KG	15.334056	47.13411	Forstviertel	Sulphur oxides (SOX)	461000.0	2007	1	0
209	Austria	1	Energy sector	1(c)	Thermal power stations and other combustion installations	AT.EEA/5904.FACILITY	WIENSTROM GmbH	16.433332	48.266666	Wien,Floridsdorf	Carbon dioxide (CO2)	201000000.0	2007	1	0
210	Austria	1	Energy sector	1(c)	Thermal power stations and other combustion installations	AT.EEA/5938.FACILITY	VERBUND Thermal Power GmbH & Co KG	15.923333	48.32611	Zwentendorf an der Donau	Carbon dioxide (CO2)	1920000000.0	2007	1	0
211	Austria	1	Energy sector	1(c)	Thermal power stations and other combustion installations	AT.EEA/5938.FACILITY	VERBUND Thermal Power GmbH & Co KG	15.923333	48.32611	Zwentendorf an der Donau	Nitrogen oxides (NOX)	827000.0	2007	1	0
212	Austria	1	Energy sector	1(c)	Thermal power stations and other combustion installations	AT.EEA/5938.FACILITY	VERBUND Thermal Power GmbH & Co KG	15.923333	48.32611	Zwentendorf an der Donau	Particulate matter (PM10)	98200.0	2007	1	0
213	Austria	1	Energy sector	1(c)	Thermal power stations and other combustion installations	AT.EEA/5938.FACILITY	VERBUND Thermal Power GmbH & Co KG	15.923333	48.32611	Zwentendorf an der Donau	Sulphur oxides (SOX)	304000.0	2007	1	0
214	Austria	5	Waste and wastewater management	5(d)	Landfills (excluding landfills of inert waste and landfills, which were definitely closed before 16.7.2001 or for which the after-care phase required by the competent authorities according to Article 13 of Council Directive 1999/31/EC of 26 April 1999 on the landfill of waste has expired)	AT.EEA/5946.FACILITY	Stadtgemeinde Frohnleiten Abfall- Behandlungs und Entsorgungszentrum	15.266944	47.268333	Adriach	Methane (CH4)	2750000.0	2007	1	0
215	Austria	3	Mineral industry	3(e)	Installations for the manufacture of glass, including glass fibre	AT.EEA/5958.FACILITY	Stölzle-Oberglas GmbH	15.0775	47.066387	Pichling bei Köflach	Nitrogen oxides (NOX)	207000.0	2007	1	0
216	Austria	5	Waste and wastewater management	5(d)	Landfills (excluding landfills of inert waste and landfills, which were definitely closed before 16.7.2001 or for which the after-care phase required by the competent authorities according to Article 13 of Council Directive 1999/31/EC of 26 April 1999 on the landfill of waste has expired)	AT.EEA/5966.FACILITY	Abfallbeseitigungsverband Westtirol	10.825417	47.233917	Roppen	Methane (CH4)	495000.0	2007	1	0
217	Austria	6	Paper and wood production and processing	6(b)	Industrial plants for the production of paper and board and other primary wood products (such as chipboard, fibreboard and plywood)	AT.EEA/64991.FACILITY	Mitteldichte Faserplatten Hallein GmbH&Co KG	13.0795	47.701805	Neualm	Carbon dioxide (CO2)	172000000.0	2007	1	0
218	Austria	6	Paper and wood production and processing	6(b)	Industrial plants for the production of paper and board and other primary wood products (such as chipboard, fibreboard and plywood)	AT.EEA/64991.FACILITY	Mitteldichte Faserplatten Hallein GmbH&Co KG	13.0795	47.701805	Neualm	Nitrogen oxides (NOX)	174000.0	2007	1	0
219	Austria	6	Paper and wood production and processing	6(b)	Industrial plants for the production of paper and board and other primary wood products (such as chipboard, fibreboard and plywood)	AT.CAED/9008390317211.FACILITY	Mondi Neusiedler GmbH	14.82	48.07	Hausmening	Carbon dioxide (CO2)	107000000.0	2008	1	0
220	Austria	4	Chemical industry	4(d)	Chemical installations for the production on an industrial scale of basic plant health products and of biocides	AT.CAED/9008390392737.FACILITY	Nufarm GmbH & CO KG	14.336056	48.290943	Linz	1,2-dichloroethane (DCE-1,2)	3310.0	2008	1	0
221	Austria	9	Other activities	9(c)	Installations for the surface treatment of substances, objects or products using organic solvents, in particular for dressing, printing, coating, degreasing, waterproofing, sizing, painting, cleaning or impregnating	AT.CAED/9008390396414.FACILITY	MAGNA STEYR Fahrzeugtechnik AG&Co KG	15.477778	47.01917	Graz,07.Bez.:Liebenau	Non-methane volatile organic compounds (NMVOC)	101000.0	2008	1	0
222	Austria	6	Paper and wood production and processing	6(b)	Industrial plants for the production of paper and board and other primary wood products (such as chipboard, fibreboard and plywood)	AT.CAED/9008390397176.FACILITY	Fritz EGGER GmbH & Co. OG	15.691833	48.259556	Unterradlberg	Carbon dioxide (CO2)	220000000.0	2008	1	0
223	Austria	6	Paper and wood production and processing	6(b)	Industrial plants for the production of paper and board and other primary wood products (such as chipboard, fibreboard and plywood)	AT.CAED/9008390397176.FACILITY	Fritz EGGER GmbH & Co. OG	15.691833	48.259556	Unterradlberg	Nitrogen oxides (NOX)	333000.0	2008	1	0
224	Austria	3	Mineral industry	3(c)	Installations for the production of cement clinker in rotary kilns, lime in rotary kilns, cement or lime in other furnaces. Note to reporters, use Level 3 activity e.g. 3(c)(i), in preference to 3(c). Level 2 activity class (i.e. 3(c)) only to be used where Level 3 is not available.	AT.CAED/9008390397220.FACILITY	voestalpine Stahl GmbH	14.159778	47.807083	Klaus an der Pyhrnbahn	Carbon dioxide (CO2)	333000000.0	2008	1	0
225	Austria	9	Other activities	9(c)	Installations for the surface treatment of substances, objects or products using organic solvents, in particular for dressing, printing, coating, degreasing, waterproofing, sizing, painting, cleaning or impregnating	AT.CAED/9008390398050.FACILITY	AR Packaging Graz GmbH	15.4	47.033333	Graz,16.Bez.:Straßgang	Non-methane volatile organic compounds (NMVOC)	246000.0	2008	1	0
226	Austria	8	Animal and vegetable products from the food and beverage sector	8(b)	Treatment and processing intended for the production of food and beverage products. Note to reporters, use Level 3 activity e.g. 8(b)(i), in preference to 8(b). Level 2 activity class (i.e. 8(b)) only to be used where Level 3 is not available.	AT.CAED/9008390402368.FACILITY	Jungbunzlauer Austria AG	16.27811	48.721222	Wulzeshofen	Carbon dioxide (CO2)	173000000.0	2008	1	0
227	Austria	6	Paper and wood production and processing	6(b)	Industrial plants for the production of paper and board and other primary wood products (such as chipboard, fibreboard and plywood)	AT.CAED/9008390404355.FACILITY	Norske Skog Bruck GmbH	15.277111	47.416862	Berndorf	Carbon dioxide (CO2)	221000000.0	2008	1	0
228	Austria	6	Paper and wood production and processing	6(b)	Industrial plants for the production of paper and board and other primary wood products (such as chipboard, fibreboard and plywood)	AT.CAED/9008390404355.FACILITY	Norske Skog Bruck GmbH	15.277111	47.416862	Berndorf	Nitrogen oxides (NOX)	376000.0	2008	1	0
229	Austria	4	Chemical industry	4(a)	Chemical installations for the production on an industrial scale of basic organic chemicals. Note to reporters, use Level 3 activity e.g. 4(a)(iii), in preference to 4(a). Level 2 activity class (i.e. 4(a)) only to be used where Level 3 is not available.	AT.CAED/9008390437407.FACILITY	ATMOSA Petrochemie	16.483334	48.13333	Mannswörth	Carbon monoxide (CO)	1530000.0	2008	1	0
230	Austria	5	Waste and wastewater management	5(d)	Landfills (excluding landfills of inert waste and landfills, which were definitely closed before 16.7.2001 or for which the after-care phase required by the competent authorities according to Article 13 of Council Directive 1999/31/EC of 26 April 1999 on the landfill of waste has expired)	AT.CAED/9008390461457.FACILITY	Burgenländischer Müllverband	16.488333	47.55	Unterfrauenhaid	Methane (CH4)	493000.0	2008	1	0
231	Austria	6	Paper and wood production and processing	6(b)	Industrial plants for the production of paper and board and other primary wood products (such as chipboard, fibreboard and plywood)	AT.CAED/9008390470305.FACILITY	M. Kaindl OG	12.999722	47.822777	Siezenheim	Carbon dioxide (CO2)	192000000.0	2008	1	0
232	Austria	6	Paper and wood production and processing	6(b)	Industrial plants for the production of paper and board and other primary wood products (such as chipboard, fibreboard and plywood)	AT.CAED/9008390470305.FACILITY	M. Kaindl OG	12.999722	47.822777	Siezenheim	Nitrogen oxides (NOX)	428000.0	2008	1	0
233	Austria	1	Energy sector	1(a)	Mineral oil and gas refineries	AT.CAED/9008390481905.FACILITY	OMV Austria Exploration u. Production	16.547028	48.284	Aderklaa	Carbon dioxide (CO2)	214000000.0	2008	1	0
234	Austria	8	Animal and vegetable products from the food and beverage sector	8(b)	Treatment and processing intended for the production of food and beverage products. Note to reporters, use Level 3 activity e.g. 8(b)(i), in preference to 8(b). Level 2 activity class (i.e. 8(b)) only to be used where Level 3 is not available.	AT.CAED/9008390484500.FACILITY	Bunge Austria GmbH	16.754778	48.022446	Bruck an der Leitha	Non-methane volatile organic compounds (NMVOC)	195000.0	2008	1	0
235	Austria	9	Other activities	9(c)	Installations for the surface treatment of substances, objects or products using organic solvents, in particular for dressing, printing, coating, degreasing, waterproofing, sizing, painting, cleaning or impregnating	AT.CAED/9008390485620.FACILITY	GIKO Verpackungen GmbH	9.648694	47.297054	Weiler	Non-methane volatile organic compounds (NMVOC)	168000.0	2008	1	0
236	Austria	1	Energy sector	1(c)	Thermal power stations and other combustion installations	AT.CAED/9008390486467.FACILITY	Trans Austria Gasleitung GmbH	16.017029	47.034	Lechen	Carbon dioxide (CO2)	142000000.0	2008	1	0
237	Austria	1	Energy sector	1(c)	Thermal power stations and other combustion installations	AT.CAED/9008390486467.FACILITY	Trans Austria Gasleitung GmbH	16.017029	47.034	Lechen	Methane (CH4)	798000.0	2008	1	0
238	Austria	1	Energy sector	1(c)	Thermal power stations and other combustion installations	AT.CAED/9008390486467.FACILITY	Trans Austria Gasleitung GmbH	16.017029	47.034	Lechen	Nitrogen oxides (NOX)	197000.0	2008	1	0
239	Austria	1	Energy sector	1(c)	Thermal power stations and other combustion installations	AT.CAED/9008390487495.FACILITY	Trans Austria Gasleitung GmbH	14.756639	46.674416	Unternberg	Carbon dioxide (CO2)	121000000.0	2008	1	0
240	Austria	1	Energy sector	1(c)	Thermal power stations and other combustion installations	AT.CAED/9008390487495.FACILITY	Trans Austria Gasleitung GmbH	14.756639	46.674416	Unternberg	Methane (CH4)	688000.0	2008	1	0
241	Austria	1	Energy sector	1(c)	Thermal power stations and other combustion installations	AT.CAED/9008390487495.FACILITY	Trans Austria Gasleitung GmbH	14.756639	46.674416	Unternberg	Nitrogen oxides (NOX)	234000.0	2008	1	0
242	Austria	3	Mineral industry	3(c)	Installations for the production of cement clinker in rotary kilns, lime in rotary kilns, cement or lime in other furnaces. Note to reporters, use Level 3 activity e.g. 3(c)(i), in preference to 3(c). Level 2 activity class (i.e. 3(c)) only to be used where Level 3 is not available.	AT.CAED/9008390509852.FACILITY	Baumit GmbH	16.085917	47.87225	Wopfing	Carbon dioxide (CO2)	446000000.0	2008	1	0
243	Austria	3	Mineral industry	3(c)	Installations for the production of cement clinker in rotary kilns, lime in rotary kilns, cement or lime in other furnaces. Note to reporters, use Level 3 activity e.g. 3(c)(i), in preference to 3(c). Level 2 activity class (i.e. 3(c)) only to be used where Level 3 is not available.	AT.CAED/9008390509852.FACILITY	Baumit GmbH	16.085917	47.87225	Wopfing	Carbon monoxide (CO)	1050000.0	2008	1	0
244	Austria	3	Mineral industry	3(c)	Installations for the production of cement clinker in rotary kilns, lime in rotary kilns, cement or lime in other furnaces. Note to reporters, use Level 3 activity e.g. 3(c)(i), in preference to 3(c). Level 2 activity class (i.e. 3(c)) only to be used where Level 3 is not available.	AT.CAED/9008390509852.FACILITY	Baumit GmbH	16.085917	47.87225	Wopfing	Mercury and compounds (as Hg)	30.6	2008	1	0
245	Austria	3	Mineral industry	3(c)	Installations for the production of cement clinker in rotary kilns, lime in rotary kilns, cement or lime in other furnaces. Note to reporters, use Level 3 activity e.g. 3(c)(i), in preference to 3(c). Level 2 activity class (i.e. 3(c)) only to be used where Level 3 is not available.	AT.CAED/9008390509852.FACILITY	Baumit GmbH	16.085917	47.87225	Wopfing	Nitrogen oxides (NOX)	344000.0	2008	1	0
246	Austria	3	Mineral industry	3(e)	Installations for the manufacture of glass, including glass fibre	AT.CAED/9008390510124.FACILITY	Vetropack Austria GmbH	15.220556	48.210835	Pöchlarn	Nitrogen oxides (NOX)	215000.0	2008	1	0
247	Austria	3	Mineral industry	3(e)	Installations for the manufacture of glass, including glass fibre	AT.CAED/9008390510254.FACILITY	Vetropack Austria GmbH	14.144222	48.0565	Kremsmünster	Nitrogen oxides (NOX)	146000.0	2008	1	0
248	Austria	2	Production and processing of metals	2(f)	Installations for surface treatment of metals and plastic materials using an electrolytic or chemical process	AT.CAED/9008390514429.FACILITY	Collini GmbH Metallveredelung	9.681667	47.369446	Hohenems	Hydrogen cyanide (HCN)	1580.0	2008	1	0
249	Austria	9	Other activities	9(c)	Installations for the surface treatment of substances, objects or products using organic solvents, in particular for dressing, printing, coating, degreasing, waterproofing, sizing, painting, cleaning or impregnating	AT.CAED/9008390537077.FACILITY	TANNPAPIER GmbH	14.233611	48.216946	Traun	Non-methane volatile organic compounds (NMVOC)	272000.0	2008	1	0
250	Austria	6	Paper and wood production and processing	6(a)	Industrial plants for the production of pulp from timber or similar fibrous materials	AT.CAED/9008390614785.FACILITY	Zellstoff Pöls Aktiengesellschaft	14.590389	47.2175	Pöls	Carbon dioxide (CO2)	946000000.0	2008	1	0
251	Austria	6	Paper and wood production and processing	6(a)	Industrial plants for the production of pulp from timber or similar fibrous materials	AT.CAED/9008390614785.FACILITY	Zellstoff Pöls Aktiengesellschaft	14.590389	47.2175	Pöls	Nitrogen oxides (NOX)	707000.0	2008	1	0
252	Austria	1	Energy sector	1(a)	Mineral oil and gas refineries	AT.CAED/9008390661741.FACILITY	OMV Downstream GmbH	16.493889	48.144722	Schwechat	Carbon dioxide (CO2)	2810000000.0	2008	1	0
253	Austria	1	Energy sector	1(a)	Mineral oil and gas refineries	AT.CAED/9008390661741.FACILITY	OMV Downstream GmbH	16.493889	48.144722	Schwechat	Nitrogen oxides (NOX)	1200000.0	2008	1	0
254	Austria	1	Energy sector	1(a)	Mineral oil and gas refineries	AT.CAED/9008390661741.FACILITY	OMV Downstream GmbH	16.493889	48.144722	Schwechat	Non-methane volatile organic compounds (NMVOC)	504000.0	2008	1	0
255	Austria	1	Energy sector	1(a)	Mineral oil and gas refineries	AT.CAED/9008390661741.FACILITY	OMV Downstream GmbH	16.493889	48.144722	Schwechat	Sulphur oxides (SOX)	851000.0	2008	1	0
256	Austria	4	Chemical industry	4(a)	Chemical installations for the production on an industrial scale of basic organic chemicals. Note to reporters, use Level 3 activity e.g. 4(a)(iii), in preference to 4(a). Level 2 activity class (i.e. 4(a)) only to be used where Level 3 is not available.	AT.CAED/9008390705353.FACILITY	Lenzing AG	13.616667	47.966667	Lenzing	Carbon dioxide (CO2)	981000000.0	2008	1	0
257	Austria	4	Chemical industry	4(a)	Chemical installations for the production on an industrial scale of basic organic chemicals. Note to reporters, use Level 3 activity e.g. 4(a)(iii), in preference to 4(a). Level 2 activity class (i.e. 4(a)) only to be used where Level 3 is not available.	AT.CAED/9008390705353.FACILITY	Lenzing AG	13.616667	47.966667	Lenzing	Nitrogen oxides (NOX)	937000.0	2008	1	0
258	Austria	4	Chemical industry	4(a)	Chemical installations for the production on an industrial scale of basic organic chemicals. Note to reporters, use Level 3 activity e.g. 4(a)(iii), in preference to 4(a). Level 2 activity class (i.e. 4(a)) only to be used where Level 3 is not available.	AT.CAED/9008390705353.FACILITY	Lenzing AG	13.616667	47.966667	Lenzing	Sulphur oxides (SOX)	489000.0	2008	1	0
259	Austria	3	Mineral industry	3(c)	Installations for the production of cement clinker in rotary kilns, lime in rotary kilns, cement or lime in other furnaces. Note to reporters, use Level 3 activity e.g. 3(c)(i), in preference to 3(c). Level 2 activity class (i.e. 3(c)) only to be used where Level 3 is not available.	AT.CAED/9008390707227.FACILITY	Smurfit Kappa Nettingsdorf AG & Co KG	14.256111	48.183056	Kremsdorf	Carbon monoxide (CO)	621000.0	2008	1	0
260	Austria	3	Mineral industry	3(c)	Installations for the production of cement clinker in rotary kilns, lime in rotary kilns, cement or lime in other furnaces. Note to reporters, use Level 3 activity e.g. 3(c)(i), in preference to 3(c). Level 2 activity class (i.e. 3(c)) only to be used where Level 3 is not available.	AT.CAED/9008390707227.FACILITY	Smurfit Kappa Nettingsdorf AG & Co KG	14.256111	48.183056	Kremsdorf	Nitrogen oxides (NOX)	250000.0	2008	1	0
261	Austria	5	Waste and wastewater management	5(c)	Installations for the disposal of non-hazardous waste	AT.CAED/9008390758045.FACILITY	Burgenländischer Müllverband	16.455833	47.807777	Großhöflein	Methane (CH4)	440000.0	2008	1	0
262	Austria	6	Paper and wood production and processing	6(b)	Industrial plants for the production of paper and board and other primary wood products (such as chipboard, fibreboard and plywood)	AT.CAED/9008390853801.FACILITY	Mayr-Melnhof Karton Gesellschaft m.b.H.	15.328056	47.278057	Frohnleiten	Carbon dioxide (CO2)	125000000.0	2008	1	0
263	Austria	5	Waste and wastewater management	5(a)	Installations for the recovery or disposal of hazardous waste	AT.CAED/9008390921050.FACILITY	Salzburger Abfallbeseitigung G.m.b.H	12.9975	47.864307	Bergheim	Methane (CH4)	2640000.0	2008	1	0
264	Austria	1	Energy sector	1(c)	Thermal power stations and other combustion installations	AT.CAED/9008390928783.FACILITY	Energie AG Oberösterreich Erzeugung GmbH	13.589111	48.010807	Timelkam	Carbon dioxide (CO2)	409000000.0	2008	1	0
265	Austria	1	Energy sector	1(c)	Thermal power stations and other combustion installations	AT.CAED/9008390928783.FACILITY	Energie AG Oberösterreich Erzeugung GmbH	13.589111	48.010807	Timelkam	Nitrogen oxides (NOX)	337000.0	2008	1	0
266	Austria	1	Energy sector	1(c)	Thermal power stations and other combustion installations	AT.CAED/9008390928783.FACILITY	Energie AG Oberösterreich Erzeugung GmbH	13.589111	48.010807	Timelkam	Nitrous oxide (N2O)	19600.0	2008	1	0
267	Austria	9	Other activities	9(c)	Installations for the surface treatment of substances, objects or products using organic solvents, in particular for dressing, printing, coating, degreasing, waterproofing, sizing, painting, cleaning or impregnating	AT.CAED/9008390931400.FACILITY	Constantia Teich GmbH	15.516667	48.1	Mühlhofen	Non-methane volatile organic compounds (NMVOC)	807000.0	2008	1	0
268	Austria	6	Paper and wood production and processing	6(b)	Industrial plants for the production of paper and board and other primary wood products (such as chipboard, fibreboard and plywood)	AT.CAED/9008390933619.FACILITY	FunderMax GmbH	16.29139	47.79361	Neudörfl	Non-methane volatile organic compounds (NMVOC)	230000.0	2008	1	0
269	Austria	1	Energy sector	1(c)	Thermal power stations and other combustion installations	AT.CAED/9008390933787.FACILITY	WIEN ENERGIE GmbH	16.359722	48.234165	Wien,Alsergrund	Carbon dioxide (CO2)	193000000.0	2008	1	0
270	Austria	1	Energy sector	1(c)	Thermal power stations and other combustion installations	AT.CAED/9008390949825.FACILITY	Gas Connect Austria GmbH	14.488944	48.54128	Rainbach im Mühlkreis	Methane (CH4)	225000.0	2008	1	0
271	Austria	6	Paper and wood production and processing	6(b)	Industrial plants for the production of paper and board and other primary wood products (such as chipboard, fibreboard and plywood)	AT.CAED/9008390952283.FACILITY	UPM Kymmene Austria GmbH	13.816667	47.983334	Stötten	Carbon dioxide (CO2)	229000000.0	2008	1	0
272	Austria	6	Paper and wood production and processing	6(b)	Industrial plants for the production of paper and board and other primary wood products (such as chipboard, fibreboard and plywood)	AT.CAED/9008390952283.FACILITY	UPM Kymmene Austria GmbH	13.816667	47.983334	Stötten	Nitrogen oxides (NOX)	363000.0	2008	1	0
273	Austria	1	Energy sector	1(c)	Thermal power stations and other combustion installations	AT.CAED/9008390956830.FACILITY	WIEN ENERGIE GmbH	16.45	48.183334	Wien,Donaustadt	Carbon dioxide (CO2)	795000000.0	2008	1	0
274	Austria	1	Energy sector	1(c)	Thermal power stations and other combustion installations	AT.CAED/9008390956830.FACILITY	WIEN ENERGIE GmbH	16.45	48.183334	Wien,Donaustadt	Nitrogen oxides (NOX)	336000.0	2008	1	0
275	Austria	4	Chemical industry	4(a)	Chemical installations for the production on an industrial scale of basic organic chemicals. Note to reporters, use Level 3 activity e.g. 4(a)(iii), in preference to 4(a). Level 2 activity class (i.e. 4(a)) only to be used where Level 3 is not available.	AT.CAED/9008390961421.FACILITY	Borealis Polyolefine GmbH	16.520111	48.136	Mannswörth	Hydrochlorofluorocarbons (HCFCs)	810.0	2008	1	0
276	Austria	4	Chemical industry	4(a)	Chemical installations for the production on an industrial scale of basic organic chemicals. Note to reporters, use Level 3 activity e.g. 4(a)(iii), in preference to 4(a). Level 2 activity class (i.e. 4(a)) only to be used where Level 3 is not available.	AT.CAED/9008390961421.FACILITY	Borealis Polyolefine GmbH	16.520111	48.136	Mannswörth	Non-methane volatile organic compounds (NMVOC)	296000.0	2008	1	0
277	Austria	2	Production and processing of metals	2(f)	Installations for surface treatment of metals and plastic materials using an electrolytic or chemical process	AT.CAED/9008390966594.FACILITY	voestalpine BÖHLER Edelstahl GmbH & Co KG	15.283333	47.433334	Winkl	Chromium and compounds (as Cr)	130.0	2008	1	0
278	Austria	2	Production and processing of metals	2(f)	Installations for surface treatment of metals and plastic materials using an electrolytic or chemical process	AT.CAED/9008390966594.FACILITY	voestalpine BÖHLER Edelstahl GmbH & Co KG	15.283333	47.433334	Winkl	Zinc and compounds (as Zn)	530.0	2008	1	0
279	Austria	6	Paper and wood production and processing	6(b)	Industrial plants for the production of paper and board and other primary wood products (such as chipboard, fibreboard and plywood)	AT.CAED/9008390968734.FACILITY	AustroCel Hallein GmbH	13.108722	47.67575	Hallein	Carbon dioxide (CO2)	490000000.0	2008	1	0
280	Austria	6	Paper and wood production and processing	6(b)	Industrial plants for the production of paper and board and other primary wood products (such as chipboard, fibreboard and plywood)	AT.CAED/9008390968734.FACILITY	AustroCel Hallein GmbH	13.108722	47.67575	Hallein	Nitrogen oxides (NOX)	311000.0	2008	1	0
281	Austria	6	Paper and wood production and processing	6(b)	Industrial plants for the production of paper and board and other primary wood products (such as chipboard, fibreboard and plywood)	AT.CAED/9008390968734.FACILITY	AustroCel Hallein GmbH	13.108722	47.67575	Hallein	Sulphur oxides (SOX)	171000.0	2008	1	0
282	Austria	3	Mineral industry	3(e)	Installations for the manufacture of glass, including glass fibre	AT.CAED/9008390969007.FACILITY	D.Swarovski KG	11.598611	47.29778	Wattens	Nitrogen oxides (NOX)	147000.0	2008	1	0
283	Austria	5	Waste and wastewater management	5(b)	Installations for the incineration of non-hazardous waste in the scope of Directive 2000/76/EC of the European Parliament and of the Council of 4 December 2000 on the incineration of waste	AT.CAED/9008390971345.FACILITY	VERBUND Thermal Power GmbH & Co KG	15.488333	46.911667	Wildon	Carbon dioxide (CO2)	1230000000.0	2008	1	0
284	Austria	5	Waste and wastewater management	5(b)	Installations for the incineration of non-hazardous waste in the scope of Directive 2000/76/EC of the European Parliament and of the Council of 4 December 2000 on the incineration of waste	AT.CAED/9008390971345.FACILITY	VERBUND Thermal Power GmbH & Co KG	15.488333	46.911667	Wildon	Nitrogen oxides (NOX)	872000.0	2008	1	0
285	Austria	5	Waste and wastewater management	5(b)	Installations for the incineration of non-hazardous waste in the scope of Directive 2000/76/EC of the European Parliament and of the Council of 4 December 2000 on the incineration of waste	AT.CAED/9008390971345.FACILITY	VERBUND Thermal Power GmbH & Co KG	15.488333	46.911667	Wildon	Sulphur oxides (SOX)	278000.0	2008	1	0
286	Austria	1	Energy sector	1(c)	Thermal power stations and other combustion installations	AT.CAED/9008390972489.FACILITY	WIEN ENERGIE GmbH	16.433332	48.166668	Wien,Simmering	Carbon dioxide (CO2)	1180000000.0	2008	1	0
287	Austria	1	Energy sector	1(c)	Thermal power stations and other combustion installations	AT.CAED/9008390972489.FACILITY	WIEN ENERGIE GmbH	16.433332	48.166668	Wien,Simmering	Nitrogen oxides (NOX)	539000.0	2008	1	0
288	Austria	1	Energy sector	1(c)	Thermal power stations and other combustion installations	AT.CAED/9008390972700.FACILITY	Salzburg AG f. Energie Verkehr und Telekommunikation	13.038111	47.8095	Salzburg	Carbon dioxide (CO2)	184000000.0	2008	1	0
289	Austria	2	Production and processing of metals	2(e)	Installations for the production and/or smelting of non-ferrous metals. Note to reporters, use Level 3 activity e.g. 2(e)(i), in preference to 2(e). Level 2 activity class (i.e. 2(e)) only to be used where Level 3 is not available.	AT.CAED/9008390973523.FACILITY	Montanwerke Brixlegg AG	11.875	47.43639	Brixlegg	Copper and compounds (as Cu)	380.0	2008	1	0
290	Austria	2	Production and processing of metals	2(e)	Installations for the production and/or smelting of non-ferrous metals. Note to reporters, use Level 3 activity e.g. 2(e)(i), in preference to 2(e). Level 2 activity class (i.e. 2(e)) only to be used where Level 3 is not available.	AT.CAED/9008390973523.FACILITY	Montanwerke Brixlegg AG	11.875	47.43639	Brixlegg	Lead and compounds (as Pb)	280.0	2008	1	0
291	Austria	2	Production and processing of metals	2(e)	Installations for the production and/or smelting of non-ferrous metals. Note to reporters, use Level 3 activity e.g. 2(e)(i), in preference to 2(e). Level 2 activity class (i.e. 2(e)) only to be used where Level 3 is not available.	AT.CAED/9008390973523.FACILITY	Montanwerke Brixlegg AG	11.875	47.43639	Brixlegg	Zinc and compounds (as Zn)	470.0	2008	1	0
292	Austria	3	Mineral industry	3(a)	Underground mining and related operations	AT.CAED/9008390973561.FACILITY	Veitsch Radex GmbH&Co OG	15.4345	47.369057	Sankt Jakob-Breitenau	Polycyclic aromatic hydrocarbons (PAHs)	135.0	2008	1	0
293	Austria	5	Waste and wastewater management	5(b)	Installations for the incineration of non-hazardous waste in the scope of Directive 2000/76/EC of the European Parliament and of the Council of 4 December 2000 on the incineration of waste	AT.CAED/9008390973899.FACILITY	Energie AG Oberösterreich Umwelt Service GmbH	14.076083	48.169834	Wels	Carbon dioxide (CO2)	326000000.0	2008	1	0
294	Austria	6	Paper and wood production and processing	6(b)	Industrial plants for the production of paper and board and other primary wood products (such as chipboard, fibreboard and plywood)	AT.CAED/9008390974230.FACILITY	FunderMax GmbH	14.377222	46.75811	St. Veit an der Glan	Nitrogen oxides (NOX)	212000.0	2008	1	0
295	Austria	2	Production and processing of metals	2(b)	Installations for the production of pig iron or steel (primary or secondary melting) including continuous casting	AT.CAED/9008390975701.FACILITY	voestalpine Stahl Donawitz GesmbH	15.067806	47.03378	Donawitz	Carbon dioxide (CO2)	3030000000.0	2008	1	0
296	Austria	2	Production and processing of metals	2(b)	Installations for the production of pig iron or steel (primary or secondary melting) including continuous casting	AT.CAED/9008390975701.FACILITY	voestalpine Stahl Donawitz GesmbH	15.067806	47.03378	Donawitz	Carbon monoxide (CO)	54600000.0	2008	1	0
297	Austria	2	Production and processing of metals	2(b)	Installations for the production of pig iron or steel (primary or secondary melting) including continuous casting	AT.CAED/9008390975701.FACILITY	voestalpine Stahl Donawitz GesmbH	15.067806	47.03378	Donawitz	Chlorine and inorganic compounds (as HCl)	17100.0	2008	1	0
298	Austria	2	Production and processing of metals	2(b)	Installations for the production of pig iron or steel (primary or secondary melting) including continuous casting	AT.CAED/9008390975701.FACILITY	voestalpine Stahl Donawitz GesmbH	15.067806	47.03378	Donawitz	Lead and compounds (as Pb)	271.0	2008	1	0
299	Austria	2	Production and processing of metals	2(b)	Installations for the production of pig iron or steel (primary or secondary melting) including continuous casting	AT.CAED/9008390975701.FACILITY	voestalpine Stahl Donawitz GesmbH	15.067806	47.03378	Donawitz	Nitrogen oxides (NOX)	1070000.0	2008	1	0
